Hotel_Address,Additional_Number_of_Scoring,Review_Date,Average_Score,Hotel_Name,Reviewer_Nationality,Negative_Review,Review_Total_Negative_Word_Counts,Total_Number_of_Reviews,Positive_Review,Review_Total_Positive_Word_Counts,Total_Number_of_Reviews_Reviewer_Has_Given,Reviewer_Score,Tags,days_since_review,lat,lng
48 Rue De L arbre Sec 1st arr 75001 Paris France,74,1/4/2016,8.6,L Empire Paris, Switzerland , No views from rooms ,6,619, Great for shopping Friendly and helpfull staff Comfi bead Nice big room and bathroom ,16,2,8.3,"[' Leisure trip ', ' Couple ', ' Superior Double or Twin Room ', ' Stayed 2 nights ', ' Submitted from a mobile device ']",577 day,48.8607764,2.3427564
66 Boulevard Barb s 18th arr 75018 Paris France,116,9/24/2016,7.2,Best Western Hotel Montmartre Sacr Coeur, Czech Republic , No fridge in the room almost no power sockets rotten soap holder in the shower,16,1201, Very friendly staff,4,5,5.4,"[' Leisure trip ', ' Solo traveler ', ' Double Room ', ' Stayed 1 night ', ' Submitted from a mobile device ']",313 day,48.888539,2.3498459
16 avenue de Tourville 7th arr 75007 Paris France,75,6/22/2016,8.8,Le Tourville Eiffel, Croatia , All sounds can be heard outside the hotel room Soundproofing not exist at all ,16,545,No Positive,0,1,7.1,"[' Leisure trip ', ' Couple ', ' Classic Double Room ', ' Stayed 3 nights ', ' Submitted from a mobile device ']",407 day,48.8542681,2.3078116
4 Rue La Boetie 8th arr 75008 Paris France,81,1/12/2017,8.7,Hotel Park Lane Paris, France ,No Negative,0,824, It s close Champs lys es and Grands Magasins,10,13,8.8,"[' Leisure trip ', ' Solo traveler ', ' Superior Double Room ', ' Stayed 3 nights ', ' Submitted from a mobile device ']",203 day,48.8745879,2.3188143
Aribau 33 Eixample 08011 Barcelona Spain,269,10/1/2015,8.0,Axel Hotel Barcelona Urban Spa Adults Only, Singapore ,No Negative,0,2694, Clean and convenient,4,1,10.0,"[' Leisure trip ', ' Group ', ' Double or Twin Room ', ' Stayed 1 night ']",672 day,41.3873478,2.1603987
30 John Islip St Westminster Borough London SW1P 4DD United Kingdom,807,10/24/2016,8.5,DoubleTree by Hilton London Westminster, United Kingdom , Room was tired a lot of chipped paint Glued surfaces fixtures Looked poorly maintained Bed not as comfortable as a premier inn ,24,3269, Close to the subway,5,1,6.3,"[' Leisure trip ', ' Couple ', ' Queen Room ', ' Stayed 2 nights ', ' Submitted from a mobile device ']",283 day,51.4932356,-0.1269082
Moll de Barcelona WTC Ciutat Vella 08039 Barcelona Spain,666,12/14/2016,8.5,Eurostars Grand Marina Hotel GL, United Arab Emirates , Suite is not really a suite,7,4559, Staff very friendly great location,6,1,7.9,"[' Leisure trip ', ' Couple ', ' Junior Suite with Balcony ', ' Stayed 4 nights ', ' Submitted from a mobile device ']",232 day,41.371308,2.181698
Cardington Street Euston Camden London NW1 2LP United Kingdom,744,3/27/2016,8.3,Thistle Euston, United Kingdom , No Gym,3,2474, Great Location for Business next to Euston Station,9,4,10.0,"[' Leisure trip ', ' Solo traveler ', ' Deluxe King Room ', ' Stayed 1 night ']",494 day,51.5291423,-0.1372782
20 Rue Jean Rey 15th arr 75015 Paris France,333,8/14/2016,8.0,Mercure Paris Centre Tour Eiffel, United Kingdom , Our room was grubby and damaged The walls were dirty and my daughter couldn t have a bath because of the mould The shower leaked The packets of milk on the tea tray were off as seals were broken Not worth the money at all ,47,2611, Beds were comfy and location great Our room,9,3,5.0,"[' Leisure trip ', ' Family with older children ', ' Standard Twin Room ', ' Stayed 3 nights ', ' Submitted from a mobile device ']",354 day,48.8548641,2.2923181
Stratton Street Mayfair Westminster Borough London W1J 8LT United Kingdom,581,3/14/2017,8.4,The May Fair Hotel, United Kingdom , The pics on line are deceiving Rooms are basic although iron board umbrella are all provided in the room Reception area out weighs the standard of the actual rooms ,31,1994, The bed was extra comfy upgraded to superking room as the first room was small and shabby And cleanliness was not up to scratch location good plenty night life staff were better than the hotel and very attentive Would use again,42,1,7.5,"[' Business trip ', ' Couple ', ' Superior Queen Room ', ' Stayed 1 night ', ' Submitted from a mobile device ']",142 day,51.5078943,-0.1436707
Silvio Pellico 4 Milan City Center 20121 Milan Italy,254,4/7/2016,9.3,Room Mate Giulia, United Arab Emirates ,No Negative,0,2011, The location is great and the staff are very Kind and friendly They have Arabic speaking employee who helped us a lot ,24,4,9.6,"[' Leisure trip ', ' Couple ', ' Superior Double or Twin Room ', ' Stayed 1 night ', ' Submitted from a mobile device ']",483 day,45.4651371,9.1895249
Prins Hendrikkade 59 72 Amsterdam City Center 1012 AD Amsterdam Netherlands,493,9/15/2016,8.6,NH Collection Amsterdam Barbizon Palace, Saudi Arabia , The elevator doesn t match a 5 star hotel missing buttons etc ,14,2865, The location is great Very close to the central station and the red light district It is a great choice if you are interested in Amsterdam s night life you can find a lot of bars pubs etc just around the hotel ,44,12,8.8,"[' Leisure trip ', ' Solo traveler ', ' Superior Double or Twin Room ', ' Stayed 3 nights ', ' Submitted from a mobile device ']",322 day,52.3764175,4.9002201
Chelsea Harbour Hammersmith and Fulham London SW10 0XG United Kingdom,326,11/26/2016,8.6,The Chelsea Harbour Hotel, United Kingdom , Expensive car park but this is Chelsea,8,1032, Excellent checkin and check out Excellent reception staff Wonderful suite great mini bar They sent a small birthday cake for my partner and it was wonderful,27,26,10.0,"[' Leisure trip ', ' Couple ', ' Chelsea Double Suite ', ' Stayed 1 night ', ' Submitted from a mobile device ']",250 day,51.4756558,-0.1813888
8 12 Manchester Street Westminster Borough London W1U 4DG United Kingdom,140,7/12/2016,8.8,Ten Manchester Street Hotel, United Kingdom ,No Negative,0,478, All lovely crisp white bed linen on super comfy bed Bathroom towels robes equally as good Staff all very friendly helpful Hotel is tucked away a little so road noise ,32,1,9.6,"[' Leisure trip ', ' Couple ', ' Deluxe Double Room ', ' Stayed 1 night ', ' Submitted from a mobile device ']",387 day,51.5188,-0.153839
97 avenue des Ternes 17th arr 75017 Paris France,87,1/4/2017,8.6,La Villa des Ternes, United Kingdom , Poor wifi service breakfast was cold,7,937,No Positive,0,5,9.2,"[' Leisure trip ', ' Couple ', ' Superior Double or Twin Room ', ' Stayed 2 nights ', ' Submitted from a mobile device ']",211 day,48.8803479,2.2858242
100 Queen s Gate Kensington and Chelsea London SW7 5AG United Kingdom,541,2/11/2016,8.0,Doubletree by Hilton London Kensington, Israel , Breakfast Egg pouder thick bacon but overal found what to eat,12,2367, Perfect bed clean room top location,7,5,10.0,"[' Business trip ', ' Couple ', ' Club Double Room ', ' Stayed 2 nights ', ' Submitted from a mobile device ']",539 day,51.4925138,-0.1787917
31 33 Argyle Street Camden London WC1H 8EP United Kingdom,219,8/7/2016,8.1,Comfort Inn Suites Kings Cross St Pancras, Denmark , Eggs were boiled green,5,1116, Nice rooms ok breakfast No luxury but very Nice Palace We will come back,15,1,8.3,"[' Leisure trip ', ' Family with older children ', ' 3 rooms ', ' Stayed 3 nights ', ' Submitted from a mobile device ']",361 day,51.5289499,-0.1232979
Bergara 2 4 Eixample 08002 Barcelona Spain,334,4/19/2017,8.5,Hotel Regina, Australia , Nothing,2,2775, Good location and access to Ramblas and Metro Easy walking distance to quite a few sights Friendly staff and clean rooms Tea making facilities in room ,28,24,8.8,"[' Leisure trip ', ' Couple ', ' Double or Twin Room ', ' Stayed 3 nights ', ' Submitted from a mobile device ']",106 day,41.3858891,2.1681652
140 Gloucester Road Kensington and Chelsea London SW7 4QH United Kingdom,528,10/17/2016,8.7,The Bailey s Hotel London, United Kingdom , There wasn t anything I didn t like,9,2485, Good location friendly staff and beautiful setting,8,6,10.0,"[' Leisure trip ', ' Couple ', ' Classic Double Room ', ' Stayed 1 night ', ' Submitted from a mobile device ']",290 day,51.4938733,-0.1824963
Lakeside Way Brent London HA9 0BU United Kingdom,1427,5/22/2017,8.8,Hilton London Wembley, Germany , the drunks in the bar,6,4305, The staff were great,5,2,10.0,"[' Leisure trip ', ' Couple ', ' King Guest Room ', ' Stayed 1 night ']",73 days,51.5576962,-0.2835263
Via Pietro Gaggia 3 Ripamonti Corvetto 20139 Milan Italy,269,4/5/2017,8.1,Starhotels Business Palace, Latvia , WiFi doesn t work properly neither in room nor lobby signal was low Tried with 2 different smartphones and PC,21,5265,No Positive,0,2,7.5,"[' Leisure trip ', ' Family with young children ', ' Junior Suite 2 Adults ', ' Stayed 1 night ', ' Submitted from a mobile device ']",120 day,45.43784,9.230901
South Quay Marsh Wall Tower Hamlets London E14 9SH United Kingdom,974,3/15/2016,9.0,Hilton London Canary Wharf, United Kingdom , Room was a bit warm Had to keep turning down temp Toilet paper holder was irritating Pillow very soft but that was actually preferred over too hard Would love to see outlets near the bed or at least the usb outlets next to the bed instead of across the room at the desk Also would be helpful if we didn t have to sign into the wifi every few hours ,72,3040, Comfortable room with all the mod cons Location was top notch to get to the O2 Arena The room was clean and quiet ,25,2,8.8,"[' Leisure trip ', ' Couple ', ' Double Guest Room ', ' Stayed 3 nights ']",506 day,51.5007324,-0.01655
Eerste Constantijn huygensstraat 26G Oud West 1054 BR Amsterdam Netherlands,272,7/24/2016,8.1,Amadi Park Hotel, Hong Kong , May be it s because of my last minute booking for the weekend stay the room price is way higher than what the hotel offers You may expect everything like a service apartment from the building layout to the rooms design to the staff service ,47,1615, Located in a relatively quiet street but still easy to get to the city center by tram,18,1,6.3,"[' Leisure trip ', ' Solo traveler ', ' Deluxe Double Room ', ' Stayed 1 night ', ' Submitted from a mobile device ']",375 day,52.364962,4.873495
Stadhouderskade 25 Oud Zuid 1071 ZD Amsterdam Netherlands,297,11/12/2015,8.3,Park Hotel, Austria , Check in only at 15 00 was not possible to get a room at 12 00 13 00,19,2027, Good location friendly personal,5,3,8.8,"[' Business trip ', ' Solo traveler ', ' Executive Room ', ' Stayed 1 night ', ' Submitted from a mobile device ']",630 day,52.3613814,4.8832594
23 Leinster Gardens Westminster Borough London W2 3AN United Kingdom,471,11/16/2015,7.0,Henry VIII, United Kingdom ,No Negative,0,2937, value for money,4,30,9.2,"[' Business trip ', ' Solo traveler ', ' Single Room ', ' Stayed 1 night ']",626 day,51.5124655,-0.182274
Ndsm Plein 28 Amsterdam Noord 1033 WB Amsterdam Netherlands,170,4/9/2016,8.2,DoubleTree by Hilton Hotel Amsterdam NDSM Wharf, United Kingdom , The only thing that could have been better but unfortunately you could not help in that matter was the weather was very cold but hotel and room were lovely and warm and cosy,34,1593, I had a lovely meal I didn t eat breakfast the beds we re very comfortable the staff were first class and the rooms were kept clean and tidy,30,1,10.0,"[' Leisure trip ', ' Family with older children ', ' Amsterdam Street Art Queen Guest Room ', ' Stayed 2 nights ', ' Submitted from a mobile device ']",481 day,52.4001813,4.8936653
Mandeville Place Westminster Borough London W1U 2BE United Kingdom,495,2/28/2016,8.5,The Mandeville Hotel, United Kingdom , I can imagine if I were staying in the double room I was in as part of a couple it would feel a bit small But it s a central London hotel so I suppose I d expect it Also no lock on the bathroom door which just felt a bit weird to me ,56,2300, The staff were friendly The room service dinner I ordered was delicious ,14,1,10.0,"[' Leisure trip ', ' Solo traveler ', ' Deluxe Single Room ', ' Stayed 1 night ']",522 day,51.5165165,-0.1509735
Imperial Road Hammersmith and Fulham London SW6 2GA United Kingdom,360,6/22/2016,8.3,DoubleTree by Hilton London Chelsea, United Kingdom , All good,3,1181, Staff were particularly helpful and warm,7,16,10.0,"[' Leisure trip ', ' Group ', ' Twin Room ', ' Stayed 2 nights ', ' Submitted from a mobile device ']",407 day,51.475172,-0.1870629
Piazza Lima 2 Central Station 20124 Milan Italy,298,12/8/2015,8.5,Best Western Plus Hotel Galles, United Kingdom ,No Negative,0,3550, Staff were all very nice and friendly ,9,6,10.0,"[' Leisure trip ', ' Group ', ' Standard Triple Room ', ' Stayed 1 night ']",604 day,45.4805847,9.2117326
Taborstra e 12 02 Leopoldstadt 1020 Vienna Austria,404,7/27/2016,9.1,Hotel Stefanie, United States of America ,No Negative,0,3883, The breakfast spread is great and offers quite a variety Friendly staff and cleanliness made this a great place to relax The location is perfect walking distance to so many sights ,33,4,10.0,"[' Leisure trip ', ' Solo traveler ', ' Single Room ', ' Stayed 3 nights ', ' Submitted from a mobile device ']",372 day,48.2142766,16.3801779
34 Lombard Road Battersea London SW11 3RF United Kingdom,472,5/10/2017,8.0,Rafayel Hotel Spa, United Kingdom , The bed would have been more comfortable if it was 2 x 3ft single beds joined together If every room was like this then it would be possible to offer twin rooms which I believe you don t currently offer My husband found the mattress collapsed when he laid at the edge Also I had asked for a quilt to be placed under the bottom sheet because of health reasons But instead another mattress cover was put in place I did mention it to the lady at reception She asked the staff but no one came to change it over I think there was a misunderstanding as to the difference between a mattress cover a quilt ,118,1378, The shuttle from train station was excellent though we waited at the wrong entrance as we hadn t been told otherwise I had asked for 4 pillows which I was given when prompted I had mentioned in an email to the hotel that my husband I were celebrating our 30th wedding anniversary When we arrived at our room we found 4 chocolates red petals on our bed plus a note wishing us a happy anniversary But best of all we had been given a room with a view of the river I had asked if it would be possible but didn t it would be possible at the rate we paid That really made me happy as I had pictured in my head that we would wake up in the morning looking at the water And we did Thank you so much The spa beautician made an excellent job of my eyebrows lashes She was super friendly explained everything she was doing ,164,4,10.0,"[' Leisure trip ', ' Couple ', ' Deluxe Double Room ', ' Stayed 1 night ']",85 days,51.4703604,-0.1779869
2 place Louis Armand 12th arr 75012 Paris France,224,1/29/2016,7.9,Mercure Paris Gare De Lyon TGV, China ,No Negative,0,2903, Best location close to Gare de Lyon There is a very nice restaurant nearby ,16,6,9.2,"[' Business trip ', ' Solo traveler ', ' Standard Twin Room ', ' Stayed 1 night ', ' Submitted from a mobile device ']",552 day,48.8442949,2.3730938
Sancho de vila 32 34 Sant Mart 08018 Barcelona Spain,289,10/14/2016,8.8,Capri by Fraser Barcelona, United Kingdom , when I entered my room the smell of hair tonics for guys is all over the room this is only one downside of the whole stay ,28,2988, perfectly perfect location good breakfast in variety and taste friendly and supportive staff,14,5,9.2,"[' Leisure trip ', ' Family with young children ', ' Deluxe Studio ', ' Stayed 3 nights ']",293 day,41.3976233,2.188975
24 27 Bedford Place Bloomsbury Camden London WC1B 5JH United Kingdom,161,1/24/2017,8.6,Grange Beauchamp Hotel, United Kingdom , Room 13 was close to the main elevator and seemed to be under a very busy area of the hotel There was a lot of noise that kept us awake at times and affected the quality of the stay The location of this particular room felt like it shouldn t be used for guests ,56,761, Room was a good size Staff were friendly ,10,1,7.5,"[' Leisure trip ', ' Couple ', ' Superior Double Room ', ' Stayed 1 night ', ' Submitted from a mobile device ']",191 day,51.5203266,-0.1245891
225 Edgware Road Westminster Borough London W2 1JU United Kingdom,1485,8/16/2015,7.5,Hilton London Metropole, Uganda , I booked as early as February 2015 through booking com However to my surprise when i arrived i was informed that you were fully occupied but after a very LONG EMBARRASSING discussion with the staff at the reception I was finally allowed access to my hotel room This affected my state of mind ,55,6977,No Positive,0,2,6.3,"[' Leisure trip ', ' Solo traveler ', ' King Hilton Guest Room ', ' Stayed 10 nights ']",718 day,51.5195688,-0.170521
372 Strand Westminster Borough London WC2R 0JJ United Kingdom,2288,12/16/2016,8.1,Strand Palace Hotel, United Kingdom , Nothing,2,9568, Excellent friendly service,4,3,10.0,"[' Leisure trip ', ' Family with young children ', ' Cosy Double Room ', ' Stayed 2 nights ', ' Submitted from a mobile device ']",230 day,51.5110993,-0.1208673
George Street Westminster Borough London W1H 5BJ United Kingdom,353,8/2/2016,8.1,Durrants Hotel, Switzerland , Nothing comes to mind ,6,1411, Old world charm Excellent location Traditional values in abundance courteous professional friendly ,14,4,8.8,"[' Leisure trip ', ' Solo traveler ', ' Double or Twin Room ', ' Stayed 1 night ']",366 day,51.5179386,-0.1529794
Rosell n 174 176 Eixample 08036 Barcelona Spain,164,5/11/2017,8.5,Bcn Urban Hotels Gran Rosellon, Romania , the bed not big enough and too tall if you have a kid 2yrs old ,17,2383, The room was nice clean and well equipped modern ,11,1,8.3,"[' Leisure trip ', ' Family with young children ', ' Economy Double Room ', ' Stayed 3 nights ']",84 days,41.4226648,2.1464261
15 rue Edouard Manet 13th arr 75013 Paris France,152,12/20/2015,9.0,COQ Hotel Paris, Italy , Dark wallpaper in the room,6,1682, Nice small stlish hotel recently renovated Room relatively large by parisian standards Brand new facilities Very clean Very close to arts et metiers university,25,15,9.6,"[' Solo traveler ', ' Superior Room ', ' Stayed 1 night ', ' Submitted from a mobile device ']",592 day,48.8328764,2.3572531
Tower Bridge Road Southwark London SE1 3UN United Kingdom,220,2/3/2016,8.3,Bermondsey Square Hotel A Bespoke Hotel, United Kingdom ,No Negative,0,844, Very comfortable and clean room Lovely views across London ,11,3,9.6,"[' Leisure trip ', ' Group ', ' Superior Double Room ', ' Stayed 1 night ', ' Submitted from a mobile device ']",547 day,51.4991134,-0.0790969
Keizersgracht 148 Amsterdam City Center 1015 CX Amsterdam Netherlands,85,5/13/2016,9.3,Canal House, United Kingdom , Nothing it was all good ,7,491, The room was lovely bathroom and bedroom all in one space It had a beautiful outside space ,19,1,9.2,"[' Leisure trip ', ' Couple ', ' Superior Double Room ', ' Stayed 3 nights ']",447 day,52.3763099,4.8862701
Piazza Fontana 3 Milan City Center 20122 Milan Italy,563,8/18/2016,8.6,Rosa Grand Milano Starhotels Collezione, Saudi Arabia , Nothing,2,4000, Every things was good ,6,18,9.6,"[' Leisure trip ', ' Couple ', ' Superior Double Room ', ' Stayed 3 nights ', ' Submitted from a mobile device ']",350 day,45.4638223,9.1940273
130 Tottenham Court Road Camden London W1T 5AY United Kingdom,713,11/1/2015,8.3,Radisson Blu Edwardian Grafton, Oman , Small dark rooom ,5,2826, The room was horrible So small it finishes before it begins In that small room There was a partition next to cupboard The approach towards the cupboard was not possible There was no space to keep a single suitcase It wasn t at all worth of money In that small there ware three steps as well can you imagine the space,62,4,4.2,"[' Leisure trip ', ' Couple ', ' Standard Double or Twin Room ', ' Stayed 1 night ', ' Submitted from a mobile device ']",641 day,51.5241386,-0.1380807
40 Marsh Wall Tower Hamlets London E14 9TP United Kingdom,102,6/15/2017,9.0,Novotel London Canary Wharf, Netherlands ,No Negative,0,320, Lovely room and great view from the bar Just perfect for a biz trip in Canary Wharf,18,21,9.2,"[' Business trip ', ' Solo traveler ', ' Superior Double Room ', ' Stayed 1 night ']",49 days,51.5011704,-0.0232607
50 Lancaster Gate Westminster Borough London W2 3NA United Kingdom,417,11/7/2015,6.7,Commodore Hotel, Malta , Although comfortable and clean the room and corridor carpets need replacement Was on the sixth floor and the lift motor made quite a noise Internet service from room was useless and in the lobby was extremely slow ,39,2400, The location although the tube station is one of least comfortable it is good Back after the hassle of centre London and the walk from station is of tranquillity One minute from beautiful Hyde Park Good selection of TV stations good sized bathroom and helpful staff ,48,4,7.1,"[' Leisure trip ', ' Couple ', ' Twin Room ', ' Stayed 2 nights ']",635 day,51.5124496,-0.1795215
252 High Holborn Holborn Camden London WC1V 7EN United Kingdom,256,8/30/2016,9.4,Rosewood London, United Kingdom ,No Negative,0,1008, Just what you d expect from a top class hotel Staff very nice and helpful,16,1,10.0,"[' Leisure trip ', ' Couple ', ' Executive King Room ', ' Stayed 1 night ']",338 day,51.5173303,-0.1180966
39 40 Bedford Place Bloomsbury Camden London WC1B 5JT United Kingdom,18,1/11/2017,8.5,Grange Buckingham Hotel, Canada , Tiny bathroom with very high sided bath and fixed head shower ideal for a six footer but not for someone much shorter,23,128, Less than a five minute walk to the British Museum and an easy walk to Leicester Square and the theatre district Fridge tiny microwave and sink in room ,30,11,8.8,"[' Leisure trip ', ' Solo traveler ', ' Single Studio ', ' Stayed 7 nights ']",204 day,51.5196124,-0.1239628
13 Rue De La Paix 2nd arr 75002 Paris France,158,6/23/2017,8.4,H tel Westminster, United Kingdom , Room was very dated aircon really struggled and room service was extortionately expensive 66 for a burger side of veg and a glass of wine ,27,1374, Location was great,4,2,7.1,"[' Business trip ', ' Solo traveler ', ' Superior Double Room ', ' Stayed 1 night ', ' Submitted from a mobile device ']",41 days,48.8693409,2.3310263
Bryanston Street Marble Arch Westminster Borough London W1H 7EH United Kingdom,908,1/7/2016,8.5,Amba Hotel Marble Arch, United Arab Emirates , The manager Jeffrey and the cleaning team,8,3980, The back office service manager Nazmin,7,13,2.9,"[' Leisure trip ', ' Family with young children ', ' Executive King Room ', ' Stayed 1 night ', ' Submitted from a mobile device ']",574 day,51.5144004,-0.1565506
Cardenal Reig 11 Les Corts 08028 Barcelona Spain,298,7/3/2016,7.7,Senator Barcelona Spa Hotel, United Kingdom , Tired and dated rooms smell in room throughout stay,10,3097,No Positive,0,5,5.0,"[' Leisure trip ', ' Couple ', ' King Room ', ' Stayed 5 nights ', ' Submitted from a mobile device ']",396 day,41.3777977,2.1135971
50 rue de Richelieu 1st arr 75001 Paris France,62,8/8/2015,8.3,Golden Tulip Washington Opera, Honduras , Very little choice for Breakfast and WiFi left much to be desired ,14,542, Beautiful arranged rooms decor was very nice Staff was nice Walking distance from the Louvre and many restaurants ,20,9,8.3,"[' Leisure trip ', ' Family with older children ', ' Triple Room ', ' Stayed 2 nights ', ' Submitted from a mobile device ']",726 day,48.866242,2.3373169
Via Venezia Giulia 8 20157 Milan Italy,76,6/19/2016,8.3,Klima Hotel Milano Fiere, United States of America , Location ,3,1785, Excellent size bed,4,2,7.5,"[' Leisure trip ', ' Solo traveler ', ' Double Room ', ' Stayed 2 nights ', ' Submitted from a mobile device ']",410 day,45.5147974,9.116606
Avenida Diagonal 568 Sarri St Gervasi 08021 Barcelona Spain,63,5/13/2016,8.7,Wilson Boutique Hotel, Germany , the lift too slow,5,724, location room is large so is the bathroom clean,10,8,7.9,"[' Business trip ', ' Solo traveler ', ' Double or Twin Room ', ' Stayed 2 nights ']",447 day,41.3944029,2.150194
Via San Raffaele 3 Milan City Center 20121 Milan Italy,112,9/1/2016,8.3,STRAF a Member of Design Hotels , United Kingdom , Hotel had no soul,5,1062, Location,2,5,6.7,"[' Leisure trip ', ' Couple ', ' Comfort Double Room ', ' Stayed 1 night ', ' Submitted from a mobile device ']",336 day,45.465237,9.191247
Rembrandtplein 26 36 Amsterdam City Center 1017 CV Amsterdam Netherlands,224,11/11/2016,7.7,NH Amsterdam Schiller, Kuwait ,No Negative,0,1667, Breakfast,2,4,8.8,"[' Leisure trip ', ' Solo traveler ', ' Standard Single Room ', ' Stayed 6 nights ', ' Submitted from a mobile device ']",265 day,52.3657092,4.8966912
117 129 Cromwell Road Kensington and Chelsea London SW7 4DS United Kingdom,229,5/22/2017,7.8,Park International Hotel, United Kingdom ,No Negative,0,1252, Great location for us very comfortable stay ,9,11,3.3,"[' Leisure trip ', ' Group ', ' 2 rooms ', ' Stayed 1 night ']",73 days,51.4945144,-0.1866172
Rembrandtplein 19 Amsterdam City Center 1017 CT Amsterdam Netherlands,137,12/17/2015,7.9,NH Amsterdam Caransa, Israel , The room maintenance is very poor ,8,966, Location,2,1,7.1,"[' Leisure trip ', ' Couple ', ' Standard Double or Twin Room ', ' Stayed 4 nights ', ' Submitted from a mobile device ']",595 day,52.3664077,4.8969091
Eerste Constantijn huygensstraat 26G Oud West 1054 BR Amsterdam Netherlands,272,7/24/2016,8.1,Amadi Park Hotel, Oman , Very few choices in breakfast,6,1615,No Positive,0,8,6.7,"[' Leisure trip ', ' Family with young children ', ' Junior Suite ', ' Stayed 4 nights ', ' Submitted from a mobile device ']",375 day,52.364962,4.873495
14 15 Langham Place Westminster Borough London W1B 2QS United Kingdom,368,11/29/2015,7.5,Saint Georges Hotel, United Kingdom , Could do with a lick of paint and corridors carpet abut tired but clean and comfortable Housekeeping call too early 745 on Saturday Please,25,2092, Excellent location Upgraded free by booking com,8,3,7.9,"[' Leisure trip ', ' Couple ', ' Superior Double Room ', ' Stayed 1 night ', ' Submitted from a mobile device ']",613 day,51.517839,-0.1424476
Catherine Grove Greenwich Greenwich London SE10 8BB United Kingdom,487,7/9/2017,8.8,Doubletree By Hilton London Greenwich, United Kingdom , No parking unless you book with doubletree ,9,1805,No Positive,0,32,7.9,"[' Leisure trip ', ' Couple ', ' Queen Guest Room ', ' Stayed 1 night ', ' Submitted from a mobile device ']",25 days,51.474469,-0.019428
34 rue de Moscou 8th arr 75008 Paris France,141,3/15/2016,8.9,Best Western Premier Kapital Op ra, Germany , Small quite crowded room,5,1444, Great shower very comfy bed,6,21,9.0,"[' Leisure trip ', ' Couple ', ' Standard Double Room ', ' Stayed 5 nights ', ' Submitted from a mobile device ']",506 day,48.8814425,2.3235592
George Street Westminster Borough London W1H 5BJ United Kingdom,353,1/5/2017,8.1,Durrants Hotel, France ,No Negative,0,1411, Old England charm the rooms are on the small side but functional clean and comfortable There are a number of cozy living areas in the hotel that give an at home feel to the place Cocktails in the evening in front of the fireplace at the George Bar were nice breakfast and tea were good but not on the cheap side Location is optimum very central and practical yet the street itself is very quiet We ll definitively be coming back on our next London trip ,88,12,10.0,"[' Leisure trip ', ' Couple ', ' Double Room ', ' Stayed 3 nights ']",210 day,51.5179386,-0.1529794
43 51 Wembley Hill Road Brent London HA9 8AU United Kingdom,540,5/12/2017,8.9,St George s Hotel Wembley, United Kingdom , I was sent to a room that was already occupied Bit embarrassing as the gentleman was in the shower at the time ,24,2274,No Positive,0,4,7.9,"[' Leisure trip ', ' Solo traveler ', ' Budget Single Room ', ' Stayed 1 night ']",83 days,51.5553678,-0.2864945
Aletta Jacobslaan 7 Slotervaart 1066 BP Amsterdam Netherlands,555,8/25/2015,8.4,Corendon Vitality Hotel Amsterdam, United Arab Emirates , Nothing,2,4410, Very clean look throughout the hotel Friendly staff 24 7 snacks bar free wifi spacious rooms ,18,42,9.6,"[' Leisure trip ', ' Couple ', ' Standard Twin Room ', ' Stayed 4 nights ']",709 day,52.3466449,4.8310984
Slotermeerlaan 80 Geuzenveld Slotermeer 1064 HD Amsterdam Netherlands,407,9/26/2016,7.3,Best Western Plus Hotel Blue Square, Sri Lanka ,No Negative,0,3161, Location is quite and calm can reach to Dam in a single Tram They even allowed us to check in early and arranged a room even before the agreed time ,32,3,8.8,"[' Leisure trip ', ' Group ', ' Triple Room ', ' Stayed 1 night ']",311 day,52.3786823,4.8207833
117 129 Cromwell Road Kensington and Chelsea London SW7 4DS United Kingdom,229,10/3/2016,7.8,Park International Hotel, United Kingdom , Rooms are small,4,1252, Comfortable room with good facilities,6,2,10.0,"[' Business trip ', ' Solo traveler ', ' Double Room ', ' Stayed 1 night ', ' Submitted from a mobile device ']",304 day,51.4945144,-0.1866172
Prins Hendrikkade 33 Amsterdam City Center 1012 TM Amsterdam Netherlands,482,4/27/2016,9.0,art otel Amsterdam, Hong Kong ,No Negative,0,3158, Friendly and helpful staff ,6,2,8.8,"[' Leisure trip ', ' Couple ', ' Art King Room ', ' Stayed 9 nights ']",463 day,52.377743,4.897057
53 61 Southwark Bridge Road Southwark London SE1 9HH United Kingdom,233,2/13/2016,8.7,Novotel London City South, United Kingdom , The room service breakfast which should be a highlight was unremarkable ,13,917, The room facilities were great The bathroom was exceptional ,11,5,9.6,"[' Leisure trip ', ' Solo traveler ', ' Superior Queen Room ', ' Stayed 1 night ', ' Submitted from a mobile device ']",537 day,51.5054832,-0.0951196
4 Boulevard Brune 14th arr 75014 Paris France,91,5/25/2017,8.8,Novotel Suites Paris Expo Porte de Versailles, India , My wife s blouse is missing and could not be found,12,1250, Metro station Very close to the property,8,1,9.6,"[' Leisure trip ', ' Family with young children ', ' Superior Queen Suite with Sofa Bed ', ' Stayed 6 nights ', ' Submitted from a mobile device ']",70 days,48.827388,2.305478
Whitcomb Street Trafalgar Square Westminster Borough London WC2H 7HG United Kingdom,266,4/26/2016,8.4,Thistle Trafalgar Square The Royal Trafalgar, United Kingdom , coffee and tea of very poor quality,8,1193,No Positive,0,6,5.4,"[' Family with older children ', ' Executive Twin Room ', ' Stayed 3 nights ']",464 day,51.509133,-0.130189
Kattengat 1 Amsterdam City Center 1012 SZ Amsterdam Netherlands,348,4/29/2016,8.0,Renaissance Amsterdam Hotel, United States of America , Wouldn t honor Marriott membership since I booked thru Booking com Hotel wants to charge 30 for early check in or we had to wait three more hours for our room but That was a lie We were told three hours later that the only room available is an executive room with club lounge benifit at the cost of 100 per nite What a scam ,67,1710, The location,3,2,5.8,"[' Leisure trip ', ' Couple ', ' Deluxe Room ', ' Stayed 3 nights ', ' Submitted from a mobile device ']",461 day,52.377955,4.894641
100 Shoreditch High Street Hackney London E1 6JQ United Kingdom,404,6/12/2017,8.6,Ace Hotel London Shoreditch, United Kingdom , All good ,4,1593, We loved our stay we were at an event in Old Spitalfields Market so very near by Loved the record player in our room hotel and room design were great really friendly and playful staff for breakfast with our little 5 yo thanks Tracey our cool french waitress May have to be my business stay of choice from now on ,62,8,9.6,"[' Business trip ', ' Family with young children ', ' Superior Double Room with Two Double Beds ', ' Stayed 1 night ']",52 days,51.5254162,-0.0772849
9 13 Bloomsbury Street Nr Covent Garden Camden London WC1B 3QD United Kingdom,392,8/30/2015,8.6,Radisson Blu Edwardian Bloomsbury Street, Croatia , There is no towel in front of shower to stand after the bath ,15,1641, Location staff ,4,5,7.9,"[' Leisure trip ', ' Family with older children ', ' Deluxe King Room ', ' Stayed 9 nights ']",704 day,51.517608,-0.1276253
Caspe 103 Eixample 08013 Barcelona Spain,312,7/30/2016,8.5,Ayre Hotel Caspe, United States of America , The bed lacked any kind of pillow top cushion that we found in our other hotels around Spain ,20,3442, Marc at the front desk was very helpful directing us to points of interest He was also very helpful with parking ,23,7,8.8,"[' Leisure trip ', ' Couple ', ' Double or Twin Room ', ' Stayed 1 night ', ' Submitted from a mobile device ']",369 day,41.3961021,2.1794688
Breite Gasse 9 07 Neubau 1070 Vienna Austria,199,11/29/2015,8.4,Hotel ViennArt am Museumsquartier, Canada , Not very comfortable beds and semi hostel like feel ,11,2692, Location is perfect and staff give good advice Museums and restaurants on doorstep ,15,5,7.1,"[' Leisure trip ', ' Couple ', ' Standard Double Room ', ' Stayed 4 nights ', ' Submitted from a mobile device ']",613 day,48.2035677,16.356445
Gran Via 550 Eixample 08011 Barcelona Spain,167,12/14/2016,8.8,Hotel Vueling Bcn by HC, United Arab Emirates , Room size very smal,5,1696, Location,2,1,6.7,"[' Leisure trip ', ' Solo traveler ', ' Double Room with Terrace ', ' Stayed 2 nights ', ' Submitted from a mobile device ']",232 day,41.3831641,2.1604736
98 Avenue d Italie 13th arr 75013 Paris France,58,6/1/2016,7.5,Best Western Amiral Hotel, United Kingdom , Breakfast wasn t worth the money of 15 per person ,12,1173, Overall the hotel was OK The bed was comfortable and our room had a balcony and the swimming pool although cold added a bit of luxury Breakfast was not great often ran out of food We had to pay extra for parking which increased our hotel expenses a great deal but the location was convenient as it was close to a metro ,64,15,5.8,"[' Leisure trip ', ' Couple ', ' Business Double Room ', ' Stayed 3 nights ', ' Submitted from a mobile device ']",428 day,48.8252307,2.3569005
Via Gaetano Airaghi 125 20153 Milan Italy,229,3/7/2017,6.9,Idea Hotel Milano San Siro, United Kingdom , Had to pay extra for air con as rooms very warm A it too far out of town ,20,5742,No Positive,0,8,4.6,"[' Leisure trip ', ' Group ', ' Twin Room ', ' Stayed 2 nights ', ' Submitted from a mobile device ']",149 day,45.4720654,9.0777871
Royal Victoria Dock Western Gateway Newham London E16 1AL United Kingdom,879,10/20/2015,8.8,Crowne Plaza London Docklands, United Kingdom ,No Negative,0,2768, Everything the hotel had thought of everything great attention to detail such as lemon water dispenser and ice machines on the hotel corridor but the best has to be the breakfast simply fantastic we will stay again ,39,2,9.6,"[' Leisure trip ', ' Couple ', ' Standard Double or Twin Room ', ' Stayed 2 nights ', ' Submitted from a mobile device ']",653 day,51.5083537,0.0198855
Piazza Fontana 3 Milan City Center 20122 Milan Italy,563,2/15/2017,8.6,Rosa Grand Milano Starhotels Collezione, Kuwait , Nothing,2,4000, Everything,2,2,10.0,"[' Leisure trip ', ' Couple ', ' Deluxe Double Room ', ' Stayed 5 nights ', ' Submitted from a mobile device ']",169 day,45.4638223,9.1940273
2 24 Kensington High St Kensington and Chelsea London W8 4PT United Kingdom,617,3/16/2016,8.8,Royal Garden Hotel, Egypt ,No Negative,0,2213, Location cleanliness staff rooms are perfect,7,17,10.0,"[' Business trip ', ' Couple ', ' King Room ', ' Stayed 5 nights ', ' Submitted from a mobile device ']",505 day,51.5027022,-0.1882164
Gran V a de les Corts Catalanes 322 Sants Montju c 08004 Barcelona Spain,391,3/8/2016,8.8,Ayre Hotel Gran V a, Ireland , Room refurbished drilling noise with only one room between my room worst on first day afternoon was offered another room but declined as I was gone in daytime no noise in evening ,34,4887, Excellent breakfast good location friendly staff,7,1,8.3,"[' Business trip ', ' Solo traveler ', ' Double or Twin Room ', ' Stayed 3 nights ']",513 day,41.3732462,2.1474351
20 rue du Sommerard 5th arr 75005 Paris France,28,11/23/2016,8.0,Mercure Paris Notre Dame Saint Germain des Pr s, United Kingdom , This is not a 4 star hotel as advertised Overall disappointed with quality ,15,268,No Positive,0,1,6.7,"[' Leisure trip ', ' Couple ', ' Standard Double Room ', ' Stayed 4 nights ', ' Submitted from a mobile device ']",253 day,48.8503074,2.3450612
5 rue du 8 Mai 1945 10th arr 75010 Paris France,710,10/27/2015,7.9,Holiday Inn Paris Gare de l Est, United Kingdom ,No Negative,0,6511, the beds are really comfy the room is modern but with a quirky design which means its not your standard Holiday Inn staff were helpful and teh location was great metro literally on the doorstep Price was the same as some horrid looking places ,46,2,9.6,"[' Leisure trip ', ' Couple ', ' Standard Double or Twin Room ', ' Stayed 2 nights ']",646 day,48.8758981,2.3590504
Herrengasse 12 01 Innere Stadt 1010 Vienna Austria,157,3/29/2016,8.4,Radisson Blu Style Hotel Vienna, United Kingdom , Lack of proper individual control of room temperature meant it was too hot in both rooms that my group occupied Bar area not cosy ,26,1189, Excellent location Helpful reception ,6,1,7.5,"[' Leisure trip ', ' Group ', ' Standard Double or Twin Room ', ' Stayed 6 nights ']",492 day,48.2101211,16.3655537
146 Praed Street Westminster Borough London W2 1EE United Kingdom,687,9/20/2016,8.2,Hilton London Paddington, Singapore , This hotel would have been nice 30 years ago but has been in steady decline ever since The furnishings and rooms are dated and tired The staff unfriendly and unwilling Lack of attention to detail e g The back doors connecting to Paddington station were locked early in the morning meaning that guests had to walk out the front of the hotel and around to access the hotel This defeated the purpose of staying close to the station Overall disappointing and dissatisfying ,84,2898, Location very convenient if needing to travel on Heathrow Express to airport but not leaving too early in the morning ,22,11,3.8,"[' Leisure trip ', ' Solo traveler ', ' Double Guest Room ', ' Stayed 1 night ', ' Submitted from a mobile device ']",317 day,51.515632,-0.175737
Nicaragua 47 Sants Montju c 08029 Barcelona Spain,211,1/7/2017,8.1,Acta CITY47, United States of America , I didn t like that there were two twin beds to make one queen bed Very inconvenient and very uncomfortable ,22,2436, Friendly staff,3,1,9.2,"[' Leisure trip ', ' Couple ', ' Double Room ', ' Stayed 6 nights ', ' Submitted from a mobile device ']",208 day,41.383515,2.1407396
Passeig Colom 12 Ciutat Vella 08002 Barcelona Spain,156,3/8/2016,8.9,Duquesa de Cardona, United Kingdom , Coffee could have been hotter at breakfast ,9,904, Small comfortable hotel in a fabulous location Very friendly staff Excellent soundproofing from outside Very good all round but it s the location on the edge of the barrio Gotic with all It s sights and restaurants and the views over the harbour that stand out ,48,1,9.6,"[' Leisure trip ', ' Couple ', ' Deluxe Double or Twin Room ', ' Stayed 4 nights ', ' Submitted from a mobile device ']",513 day,41.3798658,2.1805271
Corso Buenos Aires 33 Central Station 20124 Milan Italy,95,4/22/2016,7.6,IH Hotels Milano Puccini, United States of America , We were on the 5th floor and there was no hot water even after we mentioned this the evening before ,22,1577, Breakfast had a good selection ,7,36,6.7,"[' Leisure trip ', ' Couple ', ' Double Room ', ' Stayed 1 night ', ' Submitted from a mobile device ']",468 day,45.4794406,9.2096756
Comte d Urgell 232 Eixample 08036 Barcelona Spain,74,4/30/2016,8.7,U232 Hotel, United Kingdom , The sink in the bathroom was blocked the water drained very slowly There was no tea or coffee facilities in the room and as we arrived after 11pm with no room service or open bar we only had the drinks and few snack in the mini bar which were not appropriate adiquate,53,873, The rooms was well presented and the beds were comfortable and it was great to have air conditioning too The location was excellent very near the metro and in easy reach of places to visit Staff were very friendly and spoke good english,44,2,8.3,"[' Leisure trip ', ' Family with older children ', ' Double or Twin Room ', ' Stayed 1 night ', ' Submitted from a mobile device ']",460 day,41.3895237,2.1490307
2 Warrington Crescent Westminster Borough London W9 1ER United Kingdom,80,12/10/2015,7.8,The Colonnade, United Kingdom , This is a very old property and old fixture and fittings Lots of pillows on the bed but they were all the same choice of type of pillow would be good No bar ,35,391, Very helpful sometimes too helpful staff Great location close to tube and a few stops to the city ,20,59,7.5,"[' Leisure trip ', ' Couple ', ' Classic Double Room ', ' Stayed 1 night ', ' Submitted from a mobile device ']",602 day,51.5243286,-0.1846623
20 Upper Ground Southwark London SE1 9PD United Kingdom,1100,8/29/2015,9.1,Mondrian London, United Kingdom , Checkin staff think they are to cool and forgot the basics,12,3611, Location hotel lovely and clean and modern,8,2,7.9,"[' Leisure trip ', ' Couple ', ' Standard ', ' Stayed 2 nights ', ' Submitted from a mobile device ']",705 day,51.5084036,-0.1067988
Rambla Catalunya 26 Eixample 08007 Barcelona Spain,112,6/30/2016,8.8,NH Collection Barcelona Gran Hotel Calder n, Turkey ,No Negative,0,1072, Room was too small breakfast was perfect,8,12,6.7,"[' Leisure trip ', ' Family with young children ', ' Superior Double or Twin Room ', ' Stayed 4 nights ', ' Submitted from a mobile device ']",399 day,41.3894654,2.1662651
Gran V a de Les Corts Catalanes 647 Eixample 08010 Barcelona Spain,156,10/25/2016,8.5,Silken Gran Hotel Havana, United Kingdom ,No Negative,0,1354, Well located helpful staff very clean comfortable room ,10,5,8.3,"[' Leisure trip ', ' Family with young children ', ' Comfort Double or Twin Room with Extra Bed ', ' Stayed 3 nights ', ' Submitted from a mobile device ']",282 day,41.3927101,2.1722139
Gran Via 550 Eixample 08011 Barcelona Spain,167,7/31/2016,8.8,Hotel Vueling Bcn by HC, China , Staff can do better in every aspect especially knowledge info about Barcelona ,14,1696, location is awesome Convenient to every resort but quiet hidden in gran via 1 2 min to metro station urgell ,22,4,7.1,"[' Leisure trip ', ' Solo traveler ', ' Twin Room ', ' Stayed 3 nights ', ' Submitted from a mobile device ']",368 day,41.3831641,2.1604736
129 Bayswater Road London W2 4RJ United Kingdom,153,1/17/2017,7.8,Hilton London Hyde Park, Netherlands , Bathroom to small,4,646, Food in Aubaine,4,13,8.8,"[' Business trip ', ' Solo traveler ', ' Standard Guestroom ', ' Stayed 3 nights ']",198 day,51.51046,-0.1875844
The Strand Westminster Borough London WC2N 5HX United Kingdom,359,5/30/2016,9.3,Amba Hotel Charing Cross, United States of America , The checkin process took a little too long Perhaps they could streamline it to be quicker although they did offer their guests water and drinks while we waited ,30,1694, The staff and management were extremely helpful and friendly Even though I had not paid for breakfast with my reservation they were very courteous and extended it to me ,31,1,9.2,"[' Leisure trip ', ' Group ', ' Standard Double Room ', ' Stayed 1 night ', ' Submitted from a mobile device ']",430 day,51.508236,-0.1261963
2 Sylvester Path Hackney London E8 1EN United Kingdom,81,9/27/2015,7.9,Old Ship Inn Hackney, Australia , bed spring poking in my back and squeeky floor,10,272, food bar music and staff all good,8,17,7.1,"[' Leisure trip ', ' Couple ', ' Deluxe Family Room ', ' Stayed 2 nights ', ' Submitted from a mobile device ']",676 day,51.5458476,-0.0554113
18 Albert Embankment Lambeth London SE1 7TJ United Kingdom,1195,8/23/2015,8.3,Park Plaza London Riverbank, United Kingdom , Noise and disruption caused by the building work being done on the hotel,14,4684, The comfortable bed,4,1,6.3,"[' Leisure trip ', ' Group ', ' Executive Double Room River View ', ' Stayed 1 night ']",711 day,51.4913737,-0.1214194
20 28 Bolsover Street Westminster Borough London W1W 5NB United Kingdom,261,8/22/2015,8.1,Grange Fitzrovia Hotel, United Kingdom , Location wasn t very good Very hot inside and looks shabby and dark,14,1034, Staff was very good,5,1,4.6,"[' Leisure trip ', ' Family with young children ', ' Superior Double Room ', ' Stayed 1 night ', ' Submitted from a mobile device ']",712 day,51.521759,-0.1425381
14 15 Langham Place Westminster Borough London W1B 2QS United Kingdom,368,4/14/2016,7.5,Saint Georges Hotel, United States of America , The bed needed to be replaced old and worn but the rest of the room was great ,19,2092, Location location location the view was pretty awesome too Large and comfortable room by London standards Great area for walking shopping and dining safe and accessible to the tube I would definitely stay here again ,37,20,7.9,"[' Leisure trip ', ' Solo traveler ', ' Double Room ', ' Stayed 7 nights ']",476 day,51.517839,-0.1424476
Avenida Roma 22 30 Eixample 08015 Barcelona Spain,61,8/18/2015,8.2,H10 Itaca, Australia , Thin walls Could hear all surrounding rooms,8,732, The clean comfortable rooms,5,3,8.3,"[' Leisure trip ', ' Couple ', ' Double or Twin Room ', ' Stayed 4 nights ', ' Submitted from a mobile device ']",716 day,41.3810311,2.1455516
22 25 Finsbury Square City Islington London EC2A 1DX United Kingdom,461,12/29/2016,9.2,Montcalm Royal London House City of London, United Kingdom , Flys about no view looking at a wall,9,1592, How the lay out was,6,1,7.1,"[' Couple ', ' Deluxe Double Room ', ' Stayed 1 night ', ' Submitted from a mobile device ']",217 day,51.5218066,-0.0856081
57 59 Welbeck Street Westminster Borough London W1G 9BL United Kingdom,241,1/2/2017,7.5,Holiday Inn London Oxford Circus, United Kingdom , I didn t like the rooms they were very small Very dusty and couldn t sleep well with people emptying the bins outside our rooms about 3am Disgusting smell in the rooms was not good,36,1287, The staff was very friendly and the lobby was clean,11,2,4.6,"[' Leisure trip ', ' Couple ', ' Double Room ', ' Stayed 2 nights ', ' Submitted from a mobile device ']",213 day,51.516843,-0.1495574
Joan G ell 207 211 Les Corts 08028 Barcelona Spain,75,5/27/2016,8.0,Aparthotel Atenea Barcelona, United States of America , Rooms need an upgrade ,6,1098, The hotel is located in a great location close to camp Nou and a block away is the metro station which will take you anywhere to Barcelona in minutes even to the airport with that being said the staff is great and the rooms are clean but it will definitely need some major upgrades since for the most part everything looks old ,64,2,10.0,"[' Leisure trip ', ' Couple ', ' Double or Twin Room 1 2 Adults ', ' Stayed 3 nights ', ' Submitted from a mobile device ']",433 day,41.3862689,2.1291786
Piazza Luigi di Savoia 6 Central Station 20124 Milan Italy,347,10/2/2016,8.4,Hotel Michelangelo, Kuwait , The behavior of staff is very very bad specially the fron desk can you believe we are in 2016 and the people they do not give iron bored to the guest or the can do any pressing the cloth after 7pm,42,3510, Location near train station,5,77,3.8,"[' Business trip ', ' Couple ', ' Double Room with Spa Bath ', ' Stayed 3 nights ', ' Submitted from a mobile device ']",305 day,45.4845143,9.2057532
Eerste Constantijn huygensstraat 26G Oud West 1054 BR Amsterdam Netherlands,272,8/19/2015,8.1,Amadi Park Hotel, United Kingdom ,No Negative,0,1615, Absolutely lovely room and hotel Really modern and fresh Lovely staff who helped a lot with recommendations of Amsterdam and extra things like printing our boarding passes Would definitely stay again ,33,1,10.0,"[' Leisure trip ', ' Couple ', ' Double Room ', ' Stayed 2 nights ']",715 day,52.364962,4.873495
54 Queens Gate Kensington and Chelsea London SW7 5JW United Kingdom,161,1/16/2017,8.2,Fifty Four Boutique Hotel, United Kingdom , Small room quite dark and no outlook It had the feel of a b and b rather than a boutique hotel ,23,684, Very good location and close to the tube station Beds quite comfortable ,14,9,7.1,"[' Leisure trip ', ' Group ', ' Standard Double Room ', ' Stayed 2 nights ']",199 day,51.4963008,-0.1796853
4 rue Salomon de Caus 3rd arr 75003 Paris France,166,3/27/2017,8.2,Little Palace Hotel, United Kingdom , The hotel was nice but it isn t a four star standard For example all of the little touches that cement a luxury hotel s status are missing Fluffy big towels individual toiletries a big comfy bed none of these were present We paid for a superior room and apart from the size it was disappointing The staff were nice and the shower was good but overall I was let down ,73,1377, The decor and the location,6,2,6.3,"[' Leisure trip ', ' Couple ', ' Superior Room ', ' Stayed 2 nights ', ' Submitted from a mobile device ']",129 day,48.8675674,2.3539896
Josefst dter Stra e 10 12 08 Josefstadt 1080 Vienna Austria,333,8/11/2016,8.3,Fleming s Selection Hotel Wien City, Germany , Beds cheap matraze stains on the carpet dirty torn curtains spa,12,3672, Very friendly staff good food,6,4,8.3,"[' Leisure trip ', ' Family with older children ', ' Superior Double or Twin Room ', ' Stayed 3 nights ', ' Submitted from a mobile device ']",357 day,,
9 rue de la Michodi re 2nd arr 75002 Paris France,84,3/20/2017,8.6,Golden Tulip Opera de Noailles, United States of America , Too small room to move Elevator so small I used the steps ,14,823, Great staff Clean good location But Doing some remodeling and carpet was missing Very tiny elevator if small spaces bother you and the room tiny Could hardly move around bed although bed was adequate ,36,6,7.5,"[' Leisure trip ', ' Group ', ' Deluxe Double or Twin Room ', ' Stayed 1 night ', ' Submitted from a mobile device ']",136 day,48.8696173,2.3346428
380 Kensington High Street Kensington and Chelsea London W14 8NL United Kingdom,438,5/12/2016,7.4,Hilton London Olympia, Spain , The bed was not comfortable The walls are paper thin and you can hear people showering nextdoor The rooms and corridors need updating The price of the hotel doesn t reflect rooms,33,1786, Location The trendy Lobby and Bar,7,16,7.1,"[' Business trip ', ' Solo traveler ', ' Double Guest Room ', ' Stayed 4 nights ']",448 day,51.4967399,-0.2064723
10 Beaufort Gardens Kensington and Chelsea London SW3 1PT United Kingdom,129,10/4/2016,9.1,Knightsbridge Hotel, South Africa , Absolutely nothing,3,473, Beautiful decoration and design friendly and helpful staff lovely reception rooms fantastic location Highly recommended ,17,4,10.0,"[' Leisure trip ', ' Solo traveler ', ' Double Room ', ' Stayed 1 night ', ' Submitted from a mobile device ']",303 day,51.4980052,-0.1643238
49 Rue La Fayette 9th arr 75009 Paris France,205,5/9/2016,8.1,Best Western Premier Op ra Faubourg Ex Hotel Jules , Indonesia , Noisy outdoor surroundings in the morning ,8,1966, Excellent location easy access to public transportation ,9,8,7.5,"[' Business trip ', ' Couple ', ' 2 rooms ', ' Stayed 3 nights ']",451 day,48.8753359,2.3414617
Taborstra e 8 A 02 Leopoldstadt 1020 Vienna Austria,211,6/7/2017,8.6,Hotel City Central, Canada , Size of the room,5,2923, Close to centre for this price in Vienna,9,12,7.5,"[' Leisure trip ', ' Solo traveler ', ' Standard Single Room ', ' Stayed 2 nights ', ' Submitted from a mobile device ']",57 days,,
47 Welbeck Street Westminster Borough London W1G 8DN United Kingdom,411,4/19/2016,8.9,The Marylebone Hotel, United Kingdom ,No Negative,0,1738, The kindness and attentiveness of the staff are what makes this beautiful hotel extra special My husband has a moderate mobility problem and was treated with great courtesy and warmth I have already booked my next business trip ,40,3,10.0,"[' Business trip ', ' Couple ', ' Superior Double Room ', ' Stayed 2 nights ']",471 day,51.5180207,-0.1500567
Muntaner 212 Eixample 08036 Barcelona Spain,79,5/8/2017,8.1,Guitart Grand Passage, Romania , 80 ish style apartment Smells like old too In early May 17C outside 17C inside AC setup for summer No heating possible according to the receptionist Far from a pretended S hotel Apartment in close vicinity to an office room and a staff elevator are located or other machine from hell running from 6AM till midnight We asked specifically for a quiet room ,65,867, Apartment s size was great Clean too ,9,1,7.1,"[' Leisure trip ', ' Family with young children ', ' Comfort Double Room ', ' Stayed 4 nights ']",87 days,41.3936071,2.1504611
7 Pepys Street City of London London EC3N 4AF United Kingdom,1936,7/3/2017,8.7,DoubleTree by Hilton Hotel London Tower of London, United Kingdom , prices at bar could be very noisy given complementary token for bar but only for one person and we were two I thought as booked way in advance and explained it was my husbands birthday n a bottle of wine or something in room a little disappointed hoped there may have been a small surprise,56,7491, bed was lovely all clean and fresh,8,2,8.8,"[' Leisure trip ', ' Couple ', ' Queen Room ', ' Stayed 2 nights ']",31 days,51.5108412,-0.0780581
46 Blackfriars Road Southwark London SE1 8NZ United Kingdom,231,1/4/2016,8.7,Novotel London Blackfriars, United Kingdom , Waiting in line for breakfast with plenty of empty tables but they had not been cleared staff rushed off feet at busy time ,25,1362, Room was clean and good layout except no power socket near main large mirror for my wife to dry her hair WE FIND THIS IN MANY HOTELS SHE SAID A MAN must have designed the room Evening bar staff served great cocktails very happy chaps ,47,2,8.8,"[' Leisure trip ', ' Couple ', ' Superior Room with 1 Queen Bed ', ' Stayed 2 nights ']",577 day,51.5050165,-0.1049831
117 129 Cromwell Road Kensington and Chelsea London SW7 4DS United Kingdom,229,2/8/2017,7.8,Park International Hotel, United Kingdom , Firstly the room was far too expensive for what we got It was the worst room I ve ever stayed in after paying over 100 the room serious is worth 40 Disgusting it was The noise from the main rd meant we slept really bad Windows need double glazing The shower room was nice but the rest was awful I won t be staying there again full stop,69,1252, We loved the bar of the hotel,8,1,3.3,"[' Leisure trip ', ' Solo traveler ', ' Double Room ', ' Stayed 1 night ', ' Submitted from a mobile device ']",176 day,51.4945144,-0.1866172
Ijburglaan 539 Zeeburg 1087 BE Amsterdam Netherlands,253,7/26/2016,8.4,Amadi Panorama Hotel, Singapore ,No Negative,0,2586, It is beautiful view very convenient to get the tram to centraal Super nice and helpful staff ,19,20,9.6,"[' Leisure trip ', ' Group ', ' Deluxe Double Room with View ', ' Stayed 2 nights ', ' Submitted from a mobile device ']",373 day,52.3588806,4.9886041
1 3 Queens Garden Westminster Borough London W2 3BA United Kingdom,1058,12/29/2016,7.7,The Park Grand London Paddington, Spain , The bed the shower the room the price,9,4380,No Positive,0,2,3.8,"[' Leisure trip ', ' Couple ', ' Deluxe Double Room ', ' Stayed 1 night ', ' Submitted from a mobile device ']",217 day,51.5142184,-0.1809032
82 Gloucester Place Westminster Borough London W1U 6HN United Kingdom,204,3/14/2017,7.5,Hotel 82 London, United Kingdom ,No Negative,0,1733, Nice pleasant hotel Staff friendly I stayed in a room over looking street which I loved Great view of smart London town houses ,25,11,10.0,"[' Business trip ', ' Solo traveler ', ' Superior Double or Twin Room ', ' Stayed 1 night ']",142 day,51.5195857,-0.1584803
140 Gloucester Road Kensington and Chelsea London SW7 4QH United Kingdom,528,1/31/2017,8.7,The Bailey s Hotel London, Canada ,No Negative,0,2485, First time staying in the area and the hotel was perfect great size friendly staff great food lovely bar area and super room and location ,27,1,10.0,"[' Leisure trip ', ' Couple ', ' Deluxe Double Room ', ' Stayed 6 nights ']",184 day,51.4938733,-0.1824963
Rusland 17 Amsterdam City Center 1012 CK Amsterdam Netherlands,827,11/17/2016,8.6,Radisson Blu Hotel Amsterdam, India ,No Negative,0,4593, Location to the main tourist areas,7,1,5.8,"[' Business trip ', ' Solo traveler ', ' Superior Double or Twin Room ', ' Stayed 2 nights ']",259 day,52.3702469,4.8966743
Auerspergstra e 9 08 Josefstadt 1080 Vienna Austria,207,1/23/2017,8.4,The Levante Parliament A Design Hotel, Spain , Check in and check out took longer than necessary At 11 45 Am with latest check out at 12 00 there was only one person working the reception The bed in our room was a bit springy Otherwise very happy with this hotel ,45,1958, Location is excellent You can easily walk to all the main attractions Overall a very nice and clean hotel Good sound insulation Excellent WiFi ,26,39,8.8,"[' Leisure trip ', ' Couple ', ' Superior Double or Twin Room ', ' Stayed 2 nights ', ' Submitted from a mobile device ']",192 day,48.2083518,16.354532
Coram Street Camden London WC1N 1HT United Kingdom,709,1/5/2017,8.2,Holiday Inn London Bloomsbury, United Kingdom , On entering the hotel one has to run the gauntlet of smokers take a deep breath before approaching the entrance doors to avoid their fumes The mattress on the bed had seen better days It was too soft and had a hollow in the middle This is unusual for Holiday Inns they are normally good This was dire and we both rolled together in the centre of the bed Not a good nights sleep at all,77,2995, The location of the hotel is ideal just one block from the tube or fifteen minutes walk from the centre The breakfasts were very well cooked the scrambled eggs were soft and creamy the sausages were tasty the black pudding was not too fatty or made with too much cereal ,52,6,6.7,"[' Leisure trip ', ' Couple ', ' Standard Double or Twin Room ', ' Stayed 3 nights ']",210 day,51.5241248,-0.1258066
Plaza Paisos Catalans s n Sants Montju c 08014 Barcelona Spain,420,8/23/2016,8.6,Barcel Sants, Spain , Liked it all ,5,4379, Great location and lovely clean hotel Staff were helpful and cheerful and the room was excellent Great for catching my early morning train as it is right above the station Left my room and 5 minutes later was queuing for my train ,44,10,10.0,"[' Business trip ', ' Solo traveler ', ' Deluxe Double or Twin Room ', ' Stayed 1 night ']",345 day,41.3798964,2.1412433
6 Hercules Road Lambeth London SE1 7DP United Kingdom,323,6/8/2017,8.8,Park Plaza London Waterloo, Ireland , I wasn t happy with the service charge that was automatically applied to drinks bill in the bar Otherwise the stay was Perfect ,25,1489, Eventhough I thought it was quiet expensive to stay at this hotel I was very impressed with it from a hotel point of view and also it s location The hotel was spotless Stayed in a similar priced hotel in Brighton after this stay and it was a totally different experience sadly I would definitely stay here again the next time I am in London and would definitely recommend it to anyone ,74,1,10.0,"[' Leisure trip ', ' Couple ', ' Superior King Room ', ' Stayed 2 nights ']",56 days,51.4982412,-0.1134715
Herengracht 519 525 Amsterdam City Center 1017 BV Amsterdam Netherlands,141,2/23/2016,9.2,Banks Mansion All Inclusive Hotel, Germany , Room wasn t vacuumed during our entire stay 3 nights ,12,803, Wonderful atmosphere to relax in at the end of the day with a drink or two from the bar without worrying about the tab ,26,1,9.2,"[' Leisure trip ', ' Couple ', ' Deluxe Double Room Canal View ', ' Stayed 3 nights ', ' Submitted from a mobile device ']",527 day,52.3653868,4.8931979
75 Gower Street Camden London WC1E 6HJ United Kingdom,369,9/19/2016,6.4,Hotel Cavendish, United Kingdom , No lift asked for 3 singles got a double and pull out No air conditioning far too hot On top floor and had difficulties getting up all the stairs too many flights And breakfast was in basement 5 flights of stairsback to room Breakfast small but ok,48,2275,No Positive,0,4,6.7,"[' Leisure trip ', ' Family with young children ', ' Triple Room ', ' Stayed 1 night ', ' Submitted from a mobile device ']",318 day,51.5220522,-0.132414
Via Pietro Gaggia 3 Ripamonti Corvetto 20139 Milan Italy,269,9/1/2016,8.1,Starhotels Business Palace, United States of America ,No Negative,0,5265, Large room air conditioning close to metro restaurant on site ,12,2,8.8,"[' Leisure trip ', ' Couple ', ' Superior Double or Twin Room ', ' Stayed 1 night ', ' Submitted from a mobile device ']",336 day,45.43784,9.230901
30 Barkston Gardens Kensington and Chelsea London SW5 0EN United Kingdom,137,8/17/2016,8.6,Henley House Hotel, United States of America , There was nowhere to sit in our room except on the bed A slightly larger room with a loveseat and or chair would have been better Also the breakfast room is extremely uncomfortable There are tiny little stools to sit on without back support ,46,1179, Henley House is conveniently located near the Earl Gray tube stop It is in a quiet neighborhood and the staff is GREAT ,24,21,9.6,"[' Leisure trip ', ' Couple ', ' Deluxe Double Room ', ' Stayed 6 nights ']",351 day,51.4922348,-0.1914229
65 rue Blanche 9th arr 75009 Paris France,27,2/20/2017,8.3,R Kipling by Happyculture, United Kingdom , not sure room was a superior room which was booked as it was very small and no shower screen so bathroom got soaked,24,389, free wine in evenings and afternoon tea,8,14,7.9,"[' Leisure trip ', ' Couple ', ' Superior Double or Twin Room Tea Time Wine Tasting Included ', ' Stayed 3 nights ']",164 day,48.8820838,2.3315849
82 Dalston Lane Hackney London E8 3AH United Kingdom,70,11/2/2015,8.1,Avo Hotel, United Kingdom ,No Negative,0,276, Good clean facilities with nice restaurant downstairs Friendly staff ,11,13,9.6,"[' Leisure trip ', ' Couple ', ' King Room ', ' Stayed 1 night ', ' Submitted from a mobile device ']",640 day,51.5460628,-0.0700817
27 Devonshire Terrace Westminster Borough London W2 3DP United Kingdom,1243,8/7/2016,8.1,Park Grand Paddington Court, Australia , Electrical power blew and was not repaired after requested in the morning so lights only that evening no tv or ability to charge my phone Repaired after rerequested the next day ,33,6608, Location good for Heathrow Express and tube Staff were friendly Bathroom was clean and bed very comfortable ,19,7,5.0,"[' Leisure trip ', ' Solo traveler ', ' Deluxe Double Room ', ' Stayed 3 nights ', ' Submitted from a mobile device ']",361 day,51.5135555,-0.180002
Paseo Taulat 278 Sant Mart 08019 Barcelona Spain,160,9/14/2015,8.1,AC Hotel Barcelona Forum a Marriott Lifestyle Hotel, Italy , The staff of reception was bad never smile and for the check in tooks 45 MIN Called three times for one fork ,24,1560, The location is very good The suite was nice have a great view ,15,9,6.7,"[' Leisure trip ', ' Group ', ' Suite ', ' Stayed 1 night ', ' Submitted from a mobile device ']",689 day,41.4101306,2.2188047
South Quay Marsh Wall Tower Hamlets London E14 9SH United Kingdom,974,11/22/2016,9.0,Hilton London Canary Wharf, Isle of Man ,No Negative,0,3040, Friendly staff,3,16,7.5,"[' Leisure trip ', ' Group ', ' Twin Guest Room ', ' Stayed 3 nights ', ' Submitted from a mobile device ']",254 day,51.5007324,-0.01655
17 18 Upper Woburn Place Camden London WC1H 0HT United Kingdom,198,11/28/2016,7.4,Hilton London Euston, United Kingdom , No control over the heating in my room Concierge not always available Refurbishment taking a very long time ,20,843, Comfortable location handy for British Museum and British Library Breakfast is good and time extended at weekends ,19,1,6.3,"[' Leisure trip ', ' Solo traveler ', ' Double Guest Room ', ' Stayed 3 nights ']",248 day,51.5265189,-0.1303689
Lancaster Terrace Westminster Borough London W2 2TY United Kingdom,365,12/5/2016,8.3,Lancaster London, United Kingdom , There wasn t anything ,6,1463, The staff were so polite and kind We were so lucky to be offered complimentary breakfast as it was my birthday We would never have expected that such a lovely surprise The food was delicious and looked out onto Hyde Park Amazing ,44,2,10.0,"[' Leisure trip ', ' Couple ', ' Superior Double Room ', ' Stayed 1 night ', ' Submitted from a mobile device ']",241 day,51.5119446,-0.179939
1 Impasse Marteau 18th arr 75018 Paris France,91,5/12/2016,7.4,Novotel Suites Paris Nord 18 me, South Africa , The toilet extractor did not work and the toilet had a bad smell There is no aircon Lucky for us it was cool weather but I can imagine in hot months it can get very uncomfortable The area is not safe We walked to the metro station and nearly got attacked by a very aggressive black man that approached us in a very suspicious and aggressive manner and swore at us We just kept walking faster and went into the metro station It was very scary as we had our 10 month old baby with us We are so grateful the man did not hurt us ,108,1082, The room was a good size Very comfortable Staff very friendly and helpful ,15,1,6.7,"[' Leisure trip ', ' Family with young children ', ' Superior Suite with 1 Double Bed and 1 Single Bed ', ' Stayed 3 nights ', ' Submitted from a mobile device ']",448 day,48.9015941,2.3597783
Comte d Urgell 232 Eixample 08036 Barcelona Spain,74,6/23/2016,8.7,U232 Hotel, Bahrain , everything about the Hotel was poor,7,873,No Positive,0,1,2.5,"[' Leisure trip ', ' Couple ', ' Double or Twin Room ', ' Stayed 3 nights ']",406 day,41.3895237,2.1490307
Josep Pla 69 Sant Mart 08019 Barcelona Spain,228,6/27/2017,8.5,Vincci Bit, Jordan ,No Negative,0,2848, The staff was very nice and helpful Beautiful art on the walls and every floor is different ,19,4,9.6,"[' Leisure trip ', ' Group ', ' Double or Twin Room ', ' Stayed 1 night ']",37 days,41.4114188,2.211756
52 Chiswell Street City of London London EC1Y 4SD United Kingdom,704,12/1/2015,8.8,The Montcalm At Brewery London City, United Kingdom ,No Negative,0,2617, The staff were lovely and helpful the rooms were beautiful and the beds super comfy We also ordered room service and the food was great ,27,9,9.6,"[' Leisure trip ', ' Couple ', ' Deluxe Double Room ', ' Stayed 1 night ', ' Submitted from a mobile device ']",611 day,51.5208155,-0.0915319
68 Boulevard De Clichy 18th arr 75018 Paris France,58,4/20/2017,8.2,Hotel Le Chat Noir, United Kingdom , Room very small and location central but right at end of all the sex shops ,17,705, View fantastic,3,1,7.9,"[' Leisure trip ', ' Couple ', ' Double or Twin Room ', ' Stayed 1 night ', ' Submitted from a mobile device ']",105 day,48.8836255,2.3340538
163 Marsh Wall Docklands Tower Hamlets London E14 9SJ United Kingdom,2682,5/15/2017,7.1,Britannia International Hotel Canary Wharf, United Kingdom ,No Negative,0,9086, Great choice at a great value,7,1,7.9,"[' Leisure trip ', ' Couple ', ' Standard Double Room without Window ', ' Stayed 2 nights ', ' Submitted from a mobile device ']",80 days,51.5019097,-0.0232208
4 18 Harrington Gardens Kensington and Chelsea London SW7 4LH United Kingdom,1444,6/2/2017,7.8,Millennium Gloucester Hotel London, United Kingdom , Shower was boiling hot and unable to change temperature asked someone to look at it but by the time they came we were washed and leaving,27,5726, Bed very comfortable,4,2,6.3,"[' Leisure trip ', ' Group ', ' Standard Double Room ', ' Stayed 1 night ', ' Submitted from a mobile device ']",62 days,51.4935083,-0.1834346
Albany Street London NW1 3UP United Kingdom,354,2/1/2017,8.3,Melia White House Hotel, Germany , Check in took ages Standard room and bath are quite small not claustrophobic but not far off either Aircon was only heating and took a while to get it fixed Other than that everything fine and professionally managed ,40,1871, Excellent Location right next to Great Portland Street Tube Station and Regents Park Good breakfast Overall very good place to stay ,23,18,8.8,"[' Business trip ', ' Solo traveler ', ' Classic Twin Room ', ' Stayed 1 night ']",183 day,51.5298597,-0.1444623
1 Hamilton Place Park Lane Westminster Borough London W1J 7QY United Kingdom,162,1/3/2016,8.5,InterContinental London Park Lane, United Kingdom ,No Negative,0,510, Superb Once again ,5,4,10.0,"[' Leisure trip ', ' Family with young children ', ' Deluxe Double or Twin Room ', ' Stayed 2 nights ', ' Submitted from a mobile device ']",578 day,51.5038632,-0.1504132
1 8 Russell Square Camden London WC1B 5BE United Kingdom,724,6/19/2016,8.0,The Principal London, United Kingdom , Having to leave,4,3150, We had an upgrade at no extra cost and the room was amazing and the bed was really comfortable ,21,9,10.0,"[' Leisure trip ', ' Couple ', ' Double Room ', ' Stayed 1 night ', ' Submitted from a mobile device ']",410 day,51.5226217,-0.1251602
Wibautstraat 129 Oost 1091 GL Amsterdam Netherlands,975,8/4/2016,8.7,The Student Hotel Amsterdam City, Iraq , the cleaning of the room is the next day not every day no fridge in the rooms,18,7656, The style of the hotel was like dormitory and gives you the nostalgia of student life nice clean good services,21,5,10.0,"[' Leisure trip ', ' Couple ', ' Queen Room ', ' Stayed 2 nights ']",364 day,52.3546649,4.9131641
26 33 Queens Gardens Westminster Borough London W2 3BE United Kingdom,207,2/27/2017,8.2,Caesar Hotel, United Kingdom , The noise from the floor s above wasn t ideal when in the room Due to high heels walking on Tiled floors This was fairly persistent throughout the night ,31,1164, Friendly staff at the reception a decent offering at Breakfast but both our room and the restaurant were in the basement all felt a little bit like living underground for the weekend ,34,31,7.1,"[' Leisure trip ', ' Couple ', ' Standard Double Room ', ' Stayed 1 night ']",157 day,51.5134603,-0.1833081
Wiedner Hauptstr 27 29 04 Wieden 1040 Vienna Austria,279,5/19/2016,8.8,Hotel Erzherzog Rainer, Hong Kong , When walking to underground quite far away and quiet at night,12,3598, The breakfast is good Clean ,7,4,8.3,"[' Leisure trip ', ' Couple ', ' Double Room ', ' Stayed 3 nights ', ' Submitted from a mobile device ']",441 day,48.1953229,16.3672882
Frankenberggasse 10 04 Wieden 1040 Vienna Austria,128,4/29/2016,9.4,Best Western Premier Kaiserhof Wien, Italy , I had to change my room because of internet connection issues ,13,1353, excellent breakfast,3,5,7.5,"[' Leisure trip ', ' Couple ', ' Small Double or Twin Room ', ' Stayed 2 nights ']",461 day,48.1975497,16.3686397
47 Welbeck Street Westminster Borough London W1G 8DN United Kingdom,411,1/23/2016,8.9,The Marylebone Hotel, United Kingdom ,No Negative,0,1738, Very comfortable bed great gym staff were particularly friendly and accommodating ,13,1,9.6,"[' Business trip ', ' Couple ', ' Deluxe Double Room ', ' Stayed 1 night ', ' Submitted from a mobile device ']",558 day,51.5180207,-0.1500567
Damrak 1 5 Amsterdam City Center 1012 LG Amsterdam Netherlands,973,1/10/2016,8.0,Park Plaza Victoria Amsterdam, United Kingdom , Swimming pool was dirty white flakes And black dirty bits floating around didn t go in the pool but to sit next to the pool was nice,28,4820, Staff friendly and very helpful l lovely views of the city swimming pool area very tranquil,17,2,8.8,"[' Leisure trip ', ' Couple ', ' Double Room ', ' Stayed 3 nights ', ' Submitted from a mobile device ']",571 day,52.377278,4.897818
7 Gracechurch Street City of London London EC3V 0DR United Kingdom,764,3/6/2017,8.2,Club Quarters Hotel Gracechurch, United Kingdom , Bit noisy in the room sounds like a bathroom fan is on all the time ,17,2996, Lovely and clean ,5,3,9.2,"[' Leisure trip ', ' Couple ', ' Small Queen Room ', ' Stayed 2 nights ', ' Submitted from a mobile device ']",150 day,51.5127964,-0.0847973
11 15 Rue De Lyon 12th arr 75012 Paris France,205,4/22/2017,8.3,Holiday Inn Paris Gare de Lyon Bastille, United States of America ,No Negative,0,2200, Clean and quiet room lovely staff ,8,5,10.0,"[' Leisure trip ', ' Family with young children ', ' Standard Double Room ', ' Stayed 3 nights ', ' Submitted from a mobile device ']",103 day,48.8468064,2.3714789
Mariahilfer Stra e 122 Ecke Kaiserstra e 1 3 07 Neubau 1070 Vienna Austria,190,7/4/2017,8.5,IntercityHotel Wien, New Zealand ,No Negative,0,3003, Everything ,3,1,10.0,"[' Leisure trip ', ' Family with young children ', ' Business Apartment with Public Transport Ticket ', ' Stayed 2 nights ', ' Submitted from a mobile device ']",30 days,48.1965878,16.3413729
Rusland 17 Amsterdam City Center 1012 CK Amsterdam Netherlands,827,10/19/2016,8.6,Radisson Blu Hotel Amsterdam, United Arab Emirates ,No Negative,0,4593, Very fast complementary WIFI Location was good 5 mins walk to Dam square Staff was very helpful and prompt The way they clean the room each day is impressive ,31,7,7.5,"[' Leisure trip ', ' Group ', ' Standard Double or Twin Room ', ' Stayed 3 nights ']",288 day,52.3702469,4.8966743
39 40 Cleveland Square Westminster Borough London W2 6DA United Kingdom,153,12/24/2016,8.2,The Cleveland, Vietnam , Bed is way too small for 2 people price was too high for the amount of space ,19,909, Nice building and neighbourhood friendly staff,7,4,7.1,"[' Leisure trip ', ' Couple ', ' Standard Studio Suite ', ' Stayed 2 nights ', ' Submitted from a mobile device ']",222 day,51.5139692,-0.1828202
7 11 Queensberry Place Kensington and Chelsea London SW7 2DL United Kingdom,234,1/2/2017,6.9,Gainsborough Hotel, Denmark , Staff,2,1884, Location,2,1,5.8,"[' Couple ', ' Deluxe Double Room ', ' Stayed 2 nights ']",213 day,51.4948416,-0.1772056
1 Waterview Drive Greenwich London SE10 0TW United Kingdom,1258,4/23/2017,9.4,Intercontinental London The O2, United Kingdom ,No Negative,0,4204, Fab hotel Great staff Yummy breakfast,7,1,10.0,"[' Leisure trip ', ' Family with young children ', ' Superior Twin Room ', ' Stayed 1 night ', ' Submitted from a mobile device ']",102 day,51.5024348,-0.0002497
Singel 303 309 Amsterdam City Center 1012 WJ Amsterdam Netherlands,834,5/10/2016,9.1,Hotel Esther a, United Kingdom , The window in our room faced the elevator in the central atrium so we had to keep our shutters closed all the time for privacy,26,4687, Complimentary beverages in the lobby were excellent and the staff were very professional and friendly,16,22,9.6,"[' Leisure trip ', ' Couple ', ' Classic Double or Twin Room ', ' Stayed 2 nights ']",450 day,52.3705447,4.8886439
22 Stanley Gardens Kensington and Chelsea London W11 2NG United Kingdom,44,5/22/2016,8.9,The Portobello Hotel, United Kingdom , Tiny bathroom and lighting sockets poorly placed,8,240, Room great huge bed Lovely staff,7,2,10.0,"[' Leisure trip ', ' Couple ', ' Superior Double Room ', ' Stayed 2 nights ']",438 day,51.512257,-0.2034244
Via San Raffaele 3 Milan City Center 20121 Milan Italy,112,12/29/2015,8.3,STRAF a Member of Design Hotels , Kuwait , Dark dull rooms Uncomfortable bed matress Poor breakfast Only one elevator No cofee making facilities No complementary water bottle SLOW housekeeper,22,1062, Location,2,18,4.6,"[' Leisure trip ', ' Family with older children ', ' Superior Double or Twin Room ', ' Stayed 2 nights ', ' Submitted from a mobile device ']",583 day,45.465237,9.191247
Prinses Irenestraat 30 Zuideramstel 1077 WX Amsterdam Netherlands,726,3/29/2016,8.6,citizenM Amsterdam, United Kingdom , The only thing I d say is the rooms were not cleaned properly every day i e no clean sheets bed not made properly and was definitely not dusted however the actual hotel lobby etc was spotless ,39,4530, The bed was one of the comfiest I have stayed in The check in out self service was a much easier way as opposed to the old fashioned way Apple Mac computers and printer to use for free of charge this was handy as we had boarding passes to print from the few dealings we had with staff they seemed really friendly also the steam room which was a self service ironing room was also really handy this is free to use Overall I d say CitizenM is really funky and cool hotel ,95,1,8.8,"[' Leisure trip ', ' Couple ', ' Double Room ', ' Stayed 4 nights ']",492 day,52.3419432,4.8759604
65 rue des Saints P res 6th arr 75006 Paris France,63,7/2/2016,8.8,Hotel Des Saints Peres Esprit de France, New Zealand , Air con seemed to run very cold but that is a small thing,14,560, Nice room well appointed and in a lovely building ,11,7,9.2,"[' Leisure trip ', ' Couple ', ' Classic Double Room ', ' Stayed 3 nights ', ' Submitted from a mobile device ']",397 day,48.8534026,2.3299043
Portland Place Westminster Borough London W1B 1JA United Kingdom,375,1/31/2016,9.3,The Langham London, Guernsey , A slight lack of choice for evening meal on a Sunday ,13,1276, Very helpful and friendly staff who always had a smile for you Loved the champagne man tradition ,19,15,9.6,"[' Leisure trip ', ' Couple ', ' Superior Double Room ', ' Stayed 2 nights ', ' Submitted from a mobile device ']",550 day,51.517876,-0.1440647
Piazza Duca D Aosta 4 6 Central Station 20124 Milan Italy,639,10/15/2015,8.8,Glam Milano, Australia ,No Negative,0,7371, The decor was modern and very hip Extremely edgy and facilities were excellent,14,9,9.6,"[' Leisure trip ', ' Group ', ' Standard Triple Room ', ' Stayed 1 night ']",658 day,45.4838504,9.2034067
7 Rue Rennequin 17th arr 75017 Paris France,55,8/7/2016,7.9,Hotel Monceau Wagram, United Arab Emirates , Safe which is not screw on any wall ,10,772, Location Clean room Clean bath room Confortable bed,9,18,8.3,"[' Leisure trip ', ' Solo traveler ', ' Standard Double Room ', ' Stayed 1 night ', ' Submitted from a mobile device ']",361 day,48.8808779,2.2989756
407 Goldhawk Rd Chiswick London W6 0SA United Kingdom,256,10/25/2015,7.8,Chiswick Rooms, United States of America , Cxxl,2,882, Nothing,2,5,2.5,"[' Leisure trip ', ' Couple ', ' Double Room with Private Bathroom ', ' Stayed 1 night ', ' Submitted from a mobile device ']",648 day,51.4937409,-0.244896
Fulham Road Stamford Bridge Hammersmith and Fulham London SW6 1HS United Kingdom,525,4/12/2016,8.2,Millennium Copthorne Hotels at Chelsea Football Club, United Kingdom , N a,3,1842, Standard room very good,5,1,10.0,"[' Leisure trip ', ' Couple ', ' Standard Double Room ', ' Stayed 1 night ', ' Submitted from a mobile device ']",478 day,51.481663,-0.1909565
372 Strand Westminster Borough London WC2R 0JJ United Kingdom,2288,10/16/2015,8.1,Strand Palace Hotel, Australia , Had issues with the wifi,6,9568, Loved the location very central for our short stay in London Even managed to catch a show around the corner ,22,1,8.8,"[' Leisure trip ', ' Family with young children ', ' Cosy Double Room ', ' Stayed 1 night ', ' Submitted from a mobile device ']",657 day,51.5110993,-0.1208673
35 St James s Place Westminster Borough London SW1A 1NY United Kingdom,57,7/19/2016,8.6,Dukes Hotel, France , The telephone Internet and lights did not work correctly when we arrived They were rectified rapidly but it made for a somewhat bumpy start From then on all was excellent ,32,210,No Positive,0,1,9.6,"[' Leisure trip ', ' Couple ', ' Double Room ', ' Stayed 3 nights ']",380 day,51.5055381,-0.1396885
Wiedner G rtel 14 04 Wieden 1040 Vienna Austria,226,9/28/2016,8.3,Hotel Prinz Eugen, Canada ,No Negative,0,3308, Close enough to walk to the sights and close to the train station,14,14,7.5,"[' Leisure trip ', ' Couple ', ' Special Offer Double Room ', ' Stayed 2 nights ']",309 day,48.1877258,16.3781454
33 37 Hogarth Road Kensington and Chelsea London SW5 0QQ United Kingdom,989,12/24/2015,8.4,Park Grand London Kensington, United Kingdom ,No Negative,0,4660, Excellent location bedrooms were clean and had all we needed Staff were very friendly and offered us an upgrade on arrival free of charge ,26,1,9.6,"[' Leisure trip ', ' Couple ', ' Superior Double Room ', ' Stayed 1 night ', ' Submitted from a mobile device ']",588 day,51.4938468,-0.1917582
Gran Via 605 Eixample 08007 Barcelona Spain,343,5/16/2017,8.4,Avenida Palace, United Kingdom , Some staff rude No tea of coffee making facilities in room which is extremely poor for an expensive 4 star hotel ,23,3222, Good location Hotel lobby fantastic,6,2,5.0,"[' Leisure trip ', ' Couple ', ' Double Room 1 2 Adults ', ' Stayed 3 nights ', ' Submitted from a mobile device ']",79 days,41.3891168,2.1671986
Manor Road London IG8 8AE United Kingdom,227,4/20/2017,6.9,Hallmark Hotel London Chigwell Prince Regent, Australia , The hotel was more than an hour out of London It was very convenient if you wanted to travel out of London to the North or east but getting to the other side was a nightmare and if going to the city the train trip was more than an hour ,52,747,No Positive,0,9,8.3,"[' Leisure trip ', ' Couple ', ' Double Room ', ' Stayed 2 nights ', ' Submitted from a mobile device ']",105 day,51.6068054,0.0590416
33 Rue Cambon 1st arr 75001 Paris France,117,11/14/2015,8.7,Castille Paris Starhotels Collezione, United Kingdom , Strange smell in reception Tired dated hotel Very different to Internet pictures ,14,808, Freindly staff Central location ,6,1,5.4,"[' Leisure trip ', ' Couple ', ' Deluxe Room ', ' Stayed 2 nights ', ' Submitted from a mobile device ']",628 day,48.8682978,2.3268027
Rotensterngasse 7a 02 Leopoldstadt 1020 Vienna Austria,75,2/24/2017,8.1,Hotel Nestroy Wien, Germany , Nail clippings next to sauna ,7,682,No Positive,0,1,10.0,"[' Leisure trip ', ' Group ', ' Double Room ', ' Stayed 3 nights ', ' Submitted from a mobile device ']",160 day,48.2178332,16.3821636
Via Tarchetti 2 Milan City Center 20121 Milan Italy,436,7/29/2017,8.4,NH Milano Touring, United Arab Emirates , Location ,3,4568, The hotel is great ,6,6,8.8,"[' Leisure trip ', ' Family with young children ', ' Standard Double or Twin Room with Extra bed 2 Adults 1 Child ', ' Stayed 1 night ', ' Submitted from a mobile device ']",5 days,45.4769167,9.196665
252 High Holborn Holborn Camden London WC1V 7EN United Kingdom,256,10/6/2015,9.4,Rosewood London, United Kingdom , The only problem we had was a faulty coffee maker but we were brought up coffee and biscuits free of charge while the staff replaced the machine,28,1008, I loved the feel of luxury from the moment we arrived The staff were extremely welcoming and helpful ,20,1,9.2,"[' Leisure trip ', ' Group ', ' Executive Family Room ', ' Stayed 1 night ', ' Submitted from a mobile device ']",667 day,51.5173303,-0.1180966
81 Great Eastern Street Islington London EC2A 3HU United Kingdom,524,8/6/2015,9.0,The Hoxton Shoreditch, Spain ,No Negative,0,1732, Very modern environment I loved the breakfast and the ribs that I ordered from room service was delicious and fast The lady who delivered it was very nice and the man in the afternoon at the reception was very informative and accommodating sorry I didn t catch their names Will definitely be back soon ,56,1,10.0,"[' Leisure trip ', ' Solo traveler ', ' Deluxe Double Room ', ' Stayed 1 night ', ' Submitted from a mobile device ']",728 day,51.5255136,-0.082927
Passeig de Gracia 84 Eixample 08008 Barcelona Spain,393,9/29/2016,8.6,Royal Passeig de Gracia, , Smell in the lobby ,6,3823,No Positive,0,1,7.1,"[' Business trip ', ' Solo traveler ', ' Comfort Room ', ' Stayed 4 nights ']",308 day,41.3946775,2.162638
54 Upper Berkeley Street Westminster Borough London W1H 7QR United Kingdom,130,11/1/2016,8.5,The Sumner Hotel, Ireland ,No Negative,0,762, Staff were very cheerful and accommodating Our room was large and the bathroom was excellent I would recommend this hotel to anyone for its excellent all round facilities and location ,32,6,10.0,"[' Leisure trip ', ' Couple ', ' Standard Double or Twin Room ', ' Stayed 1 night ']",275 day,51.5152892,-0.160898
Schottenring 3 01 Innere Stadt 1010 Vienna Austria,416,4/18/2016,8.5,Hotel de France Wien, United Kingdom , Room very basic Minimal wardrobe space,7,5177, Excellent choice for breakfast,5,9,7.5,"[' Leisure trip ', ' Couple ', ' Superior Double Room ', ' Stayed 5 nights ', ' Submitted from a mobile device ']",472 day,48.2146623,16.3627994
Holland Park Avenue Kensington and Chelsea London W11 4UL United Kingdom,843,5/4/2017,7.8,Hilton London Kensington Hotel, United Kingdom , The iron burnt my partners top which the staff were great about provided a new iron and refunded 30 for the top Once home I was left without money as your hotel had pre authorised my payment for the room and then charged on a separate invoice 4 days later I could not travel to work as I had no funds available so had loss of earning s very poor service email for a 4 hotel ,78,3801, The shower was great and large TV ,9,1,5.8,"[' Leisure trip ', ' Couple ', ' Double Hilton Guestroom ', ' Stayed 4 nights ', ' Submitted from a mobile device ']",91 days,51.5051084,-0.213266
44 Rue Madame 6th arr 75006 Paris France,24,6/24/2017,8.8,A La Villa Madame, United States of America , Nothing,2,185, Everything ,3,2,10.0,"[' Leisure trip ', ' Group ', ' 2 rooms ', ' Stayed 9 nights ', ' Submitted from a mobile device ']",40 days,48.8488608,2.3315257
22 Hertsmere Road Tower Hamlets London E14 4ED United Kingdom,930,4/25/2017,8.9,London Marriott Hotel West India Quay, United Kingdom ,No Negative,0,2836, Staff were very nice it was for marathon so the hotel took this into account and accommodated for this,20,1,9.6,"[' Leisure trip ', ' Couple ', ' Deluxe King or Twin Room ', ' Stayed 1 night ', ' Submitted from a mobile device ']",100 day,51.5072713,-0.0211213
Via Manin 7 Milan City Center 20121 Milan Italy,175,6/6/2017,8.4,Hotel Manin, United Kingdom , The staff were extremely rude unhelpful and only interested in business people with extreme amounts of power and money just felt invisible At one point we waited over 40 mins to get a drink in the delightful gardens when we were the only people there The room we booked was supposed to have a balcony but it didn t it was also supposed to have a bath but it didn t So overall although the hotel area was quiet and well situated we would not go back to this hotel as were very disappointed ,96,1757, About the only thing we liked was the comfortable beds and air conditioning ,15,3,5.0,"[' Leisure trip ', ' Group ', ' Double or Twin Room with Park View ', ' Stayed 2 nights ']",58 days,45.4739801,9.1960671
102 Bd De Grenelle 15th arr 75015 Paris France,241,12/20/2016,8.6,Le Parisis Paris Tour Eiffel, United Kingdom ,No Negative,0,1477, Excellent hospitality great location friendly and very helpful staff such a lovely stay ,15,1,9.6,"[' Leisure trip ', ' Couple ', ' Double Room with Eiffel Tower View ', ' Stayed 2 nights ', ' Submitted from a mobile device ']",226 day,48.8494851,2.2955063
Wrights Lane Kensington and Chelsea London W8 5SP United Kingdom,1172,12/5/2016,7.8,Holiday Inn London Kensington, United Kingdom , Deposit,2,5945,No Positive,0,1,7.9,"[' Leisure trip ', ' Couple ', ' Standard Double Room ', ' Stayed 3 nights ', ' Submitted from a mobile device ']",241 day,51.499981,-0.1928791
Diputaci 195 Eixample 08011 Barcelona Spain,69,3/10/2016,8.7,Ako Suites Hotel, Belarus , When we arrived the room was cleaned and it had distinct chemicals smell Also it seems they allow smoking in the rooms ,24,771, Exceptional location for the price very close to Metro and not far from Catalonia square Big apartment modern looking everything works Lobby is fantastic and in my view even excessive for appart hotel ,35,60,9.2,"[' Leisure trip ', ' Couple ', ' Apartment 1 2 Adults ', ' Stayed 2 nights ']",511 day,41.3861153,2.1611899
Margareteng rtel 142 05 Margareten 1050 Vienna Austria,84,1/29/2017,8.9,Falkensteiner Hotel Wien Margareten, Germany , i think the cleaning Lady was in a haste she left her sponge in the bathroom sink one day still alright,22,1218, Awesome beds nice spa area very friendly and Helpful staff Early Check in was possible good Location,18,2,9.6,"[' Business trip ', ' Couple ', ' Superior Double or Twin Room ', ' Stayed 4 nights ', ' Submitted from a mobile device ']",186 day,48.1868107,16.3440157
1 Inverness Terrace Westminster Borough London W2 3JP United Kingdom,1274,8/28/2016,7.7,Grand Royale London Hyde Park, Canada , I did not like being at the front of the hotel We stayed for a few days at the back of the hotel and returned from a trip to be put at the front Nicer view but no sleep as you can really hear the drunks shouting in the street,51,6539, The service was excellent and staff very professional and very accommodating when we had to move hotels because of a burst boiler,23,2,9.2,"[' Leisure trip ', ' Family with older children ', ' 2 rooms ', ' Stayed 4 nights ']",340 day,51.5109945,-0.1863417
81 103 Euston Street Camden London NW1 2EZ United Kingdom,556,1/22/2017,8.0,TheWesley, United Kingdom , Booked through booking com our original room offered looked nothing like the one shown nor the hotels website I think the hotel was not worth the 100 as we had problems with the room as the heating was not working and had to call for assistance serveral times until moving rooms ,53,2347, Location was good as it was close to Euston station The staff were kind enough to offer complimentary breakfast and willing to change our room twice when we weren t happy as had problems with heating We were also given a 10 discount,44,1,5.8,"[' Leisure trip ', ' Group ', ' Superior Double Bedroom ', ' Stayed 1 night ', ' Submitted from a mobile device ']",193 day,51.5265353,-0.1361682
9 13 Bloomsbury Street Nr Covent Garden Camden London WC1B 3QD United Kingdom,392,2/3/2017,8.6,Radisson Blu Edwardian Bloomsbury Street, United Kingdom ,No Negative,0,1641, Friendly efficient staff comfortable clean rooms good choices for breakfast and nicely cooked,14,3,10.0,"[' Leisure trip ', ' Group ', ' Superior Double or Twin Room ', ' Stayed 1 night ', ' Submitted from a mobile device ']",181 day,51.517608,-0.1276253
214 rue du Faubourg Saint Honor 8th arr 75008 Paris France,105,2/10/2016,8.2,H tel Etoile Saint Honor by Happyculture, Germany , shower,2,762,No Positive,0,17,8.3,"[' Leisure trip ', ' Family with older children ', ' Classic Double Room ', ' Stayed 1 night ']",540 day,48.8756508,2.3041568
Aldwych Westminster Borough London WC2B 4DD United Kingdom,409,1/6/2016,8.4,The Waldorf Hilton, United Kingdom ,No Negative,0,1479, The executive room and lounge was amazing Staff so lovely and helpful ,14,1,10.0,"[' Group ', ' Executive King Room with Lounge Access ', ' Stayed 1 night ', ' Submitted from a mobile device ']",575 day,51.5131979,-0.1174504
80 86 Belgrave Road Westminster Borough London SW1V 2BJ United Kingdom,391,9/27/2016,8.6,The Belgrave Hotel, United Kingdom , paid 2 70 for a diet coke 1 20 in my local pub rip off or what ,19,2685,No Positive,0,4,9.2,"[' Leisure trip ', ' Couple ', ' Executive Double Room ', ' Stayed 2 nights ']",310 day,51.4901051,-0.1381355
Herrengasse 12 01 Innere Stadt 1010 Vienna Austria,157,1/23/2017,8.4,Radisson Blu Style Hotel Vienna, Spain , Nothing ,3,1189, Everything Staff was so helpful and friendly Room was clean and hotel was very nice in a perfect location,20,2,10.0,"[' Leisure trip ', ' Group ', ' Standard Double or Twin Room ', ' Stayed 3 nights ', ' Submitted from a mobile device ']",192 day,48.2101211,16.3655537
3 Devonshire Terrace Westminster Borough London W2 3DN United Kingdom,128,3/6/2017,7.9,Paddington Court Executive Rooms, Netherlands ,No Negative,0,681, The bed the stuff location,6,11,9.2,"[' Leisure trip ', ' Group ', ' Deluxe Single Room ', ' Stayed 2 nights ', ' Submitted from a mobile device ']",150 day,51.5138357,-0.1797976
68 86 Cromwell Road Kensington Kensington and Chelsea London SW7 5BT United Kingdom,514,5/24/2016,8.2,Radisson Blu Edwardian Vanderbilt, United Kingdom ,No Negative,0,2665, Reception staff extremely friendly and couldn t do enough to help mentioned was my husbands birthday and they delivered a cake to the room which was a very nice touch Would use this hotel again when going to the Royal Albert Hall ,44,2,10.0,"[' Leisure trip ', ' Couple ', ' Standard Room ', ' Stayed 1 night ', ' Submitted from a mobile device ']",436 day,51.4953691,-0.1818966
151 157 City Road Shoreditch Islington London EC1V 1JS United Kingdom,1471,1/11/2017,9.1,M by Montcalm Shoreditch London Tech City, United Kingdom ,No Negative,0,4802, Very comfy beds good technology in the rooms very clean and lovely facilities Overall a very good stay well worth the money ,24,1,9.6,"[' Leisure trip ', ' Couple ', ' Deluxe Double ', ' Stayed 1 night ', ' Submitted from a mobile device ']",204 day,51.5278465,-0.0889473
5 7 Princes Square Kensington and Chelsea London W2 4NP United Kingdom,371,9/15/2016,7.3,The Premier Notting Hill, South Africa , I booked an accomodation with breakfast but I was charged breakfast on top of the hotel accomodation The bed is terrible sausage at breakfast not up to standard,29,2215, I liked the location,5,1,5.0,"[' Family with older children ', ' Deluxe Double Room ', ' Stayed 4 nights ']",322 day,51.5127453,-0.1926437
32 Rue Greuze 16th arr 75016 Paris France,37,2/8/2016,8.5,Plaza Tour Eiffel, United States of America , Very noisy heating fan difficult to control temperature ,10,266, Comfortable bed ample space bathroom clean and comfortable ,10,33,7.9,"[' Business trip ', ' Solo traveler ', ' Deluxe Room ', ' Stayed 4 nights ']",542 day,48.8645647,2.2821827
7 Gracechurch Street City of London London EC3V 0DR United Kingdom,764,12/5/2016,8.2,Club Quarters Hotel Gracechurch, Switzerland , Small rooms maintenance is as 3 star hotel personal is not very friendly they were pushing us to provide credit card even if the booking has been 100 prepaid and we refuse to have any additional services Very stinky towels even fresh ones looked dirty even fresh ones I would say only location is the benefit nothing else from claimed 4 stars ,64,2996, Location is good,4,15,5.8,"[' Leisure trip ', ' Couple ', ' Standard Queen Room ', ' Stayed 3 nights ', ' Submitted from a mobile device ']",241 day,51.5127964,-0.0847973
8 Northumberland Avenue Westminster Borough London WC2N 5BY United Kingdom,409,9/20/2016,8.3,The Grand at Trafalgar Square, United Kingdom ,No Negative,0,1592, Great location comfiest bed I ve ever slept in ,11,2,10.0,"[' Leisure trip ', ' Couple ', ' Standard Queen Room ', ' Stayed 1 night ', ' Submitted from a mobile device ']",317 day,51.506935,-0.126012
59 Leinster Square Kensington and Chelsea London W2 4PS United Kingdom,337,5/20/2017,7.6,New Linden Hotel, United Kingdom , Room was basic and needed an update Curtains would not pull together ,14,2820, Good choice of basic breakfast food Ok for a 1 night stay ,14,10,7.9,"[' Leisure trip ', ' Group ', ' Standard Double Room ', ' Stayed 1 night ']",75 days,51.5133832,-0.1926617
1a Lexham Gardens Kensington and Chelsea London W8 5JJ United Kingdom,222,8/28/2016,7.5,Mercure London Kensington Hotel, Australia ,No Negative,0,1016, Nice location in Kensington,5,3,7.9,"[' Leisure trip ', ' Solo traveler ', ' Standard Double Room ', ' Stayed 3 nights ', ' Submitted from a mobile device ']",340 day,51.4950098,-0.1906195
117 Rue Lauriston 16th arr 75116 Paris France,34,9/15/2015,7.9,Le Dokhan s a Tribute Portfolio Hotel, Ireland , The only bad experience was having to leave and go home Loved everything about this hotel Thank you to all the wonderful staff ,25,222, Brilliant hotel wonderful staff warm welcoming the perfect venue Nothing was to much trouble for this great boutique delightful hotel Business class room was superb ,27,8,10.0,"[' Leisure trip ', ' Couple ', ' Business Class Room ', ' Stayed 4 nights ', ' Submitted from a mobile device ']",688 day,48.8663359,2.2867935
29 Rue Jacob 6th arr 75006 Paris France,33,11/13/2016,9.1,Hotel La Villa Saint Germain Des Pr s, Netherlands , roomspace,2,190, location,2,15,8.3,"[' Business trip ', ' Couple ', ' Classic Room ', ' Stayed 3 nights ']",263 day,48.8553486,2.3340736
Mariahilfer Stra e 78 07 Neubau 1070 Vienna Austria,164,4/9/2017,8.9,NH Collection Wien Zentrum, United States of America , Noise from street from elevator from pigeons nesting on the canopy ,13,1887, Location modern interior,4,4,8.8,"[' Business trip ', ' Solo traveler ', ' Superior Double or Twin Room ', ' Stayed 2 nights ', ' Submitted from a mobile device ']",116 day,48.1979979,16.3483314
354 Queenstown Road Battersea London SW8 4AE United Kingdom,568,7/17/2016,8.6,Pestana Chelsea Bridge Hotel Spa, United States of America , The service left a bit to be desired For example we ordered room service with a soda that required an opener They didn t provide us with an opener and when I requested one it was never delivered We needed an iron which was brought to us quickly However it didn t work Cleanliness was pretty good but the couch was dirty and there were spots on the blanket on the bed ,74,1686, The room was a good size The hotel was quiet in general ,14,4,7.9,"[' Leisure trip ', ' Family with older children ', ' Deluxe Twin Room ', ' Stayed 4 nights ']",382 day,51.4815995,-0.1481053
Calvet 40 42 Sarri St Gervasi 08021 Barcelona Spain,6,7/26/2016,7.9,AC Hotel Irla a Marriott Lifestyle Hotel, Spain , Paid wifi ,4,69, Staff ,3,2,7.1,"[' Solo traveler ', ' Double Room ', ' Stayed 1 night ', ' Submitted from a mobile device ']",373 day,41.3948175,2.1434702
30 Leinster Gardens Bayswater Westminster Borough London W2 3AN United Kingdom,1198,6/7/2017,8.5,Blakemore Hyde Park, United Kingdom , Nothing,2,6596, The staff were amazing and nothing was too much trouble beautiful rooms and very clean Excellent food,18,1,10.0,"[' Business trip ', ' Solo traveler ', ' Club Double Room ', ' Stayed 2 nights ', ' Submitted from a mobile device ']",57 days,51.5129736,-0.1837431
31 Great Cumberland Place Westminster Borough London W1H 7TA United Kingdom,365,6/28/2017,8.1,The Marble Arch London, Kuwait , small room no lobby some areas in the floor make noise when stepped on,15,1567, friendly staff,3,10,7.1,"[' Leisure trip ', ' Family with young children ', ' Deluxe Double Room ', ' Stayed 1 night ', ' Submitted from a mobile device ']",36 days,51.5151247,-0.1600656
372 Strand Westminster Borough London WC2R 0JJ United Kingdom,2288,1/12/2016,8.1,Strand Palace Hotel, United Kingdom ,No Negative,0,9568, The facilities were excellent as was the location,9,3,10.0,"[' Leisure trip ', ' Family with older children ', ' 2 rooms ', ' Stayed 1 night ']",569 day,51.5110993,-0.1208673
5 Fairmont Avenue Canary Wharf Tower Hamlets London E14 9JB United Kingdom,620,5/15/2017,9.0,Radisson Blu Edwardian New Providence Wharf, United Kingdom , We made our booking including breakfast and when we arrived they informed us breakfast wasn t included in our breakfast and they wern t willing to contact booking com to rectify my booking,34,1974, The bed and pillows were so comfy,8,3,8.8,"[' Leisure trip ', ' Couple ', ' Superior King or Twin Room ', ' Stayed 1 night ']",80 days,51.5065578,-0.004514
Gran Via 559 Eixample 08012 Barcelona Spain,73,4/13/2017,8.6,H10 Casanova, United Kingdom , Only niggle was no tea coffee facilities in the room which Is a must when staying for a few days Can request kettle from reception but it s subject to availability ,33,641, A good standard and nice modern hotel Welcomed with a glass of presseco Comfortable big bed Balcony Perfect Location with easy access to metro,25,3,9.2,"[' Leisure trip ', ' Family with young children ', ' Double or Twin Room with Extra Bed 3 Adults ', ' Stayed 4 nights ', ' Submitted from a mobile device ']",112 day,41.3842608,2.1609471
Singel 303 309 Amsterdam City Center 1012 WJ Amsterdam Netherlands,834,10/19/2016,9.1,Hotel Esther a, United States of America , Not much No exhaust fans in bathroom ,9,4687, Charming rooms Great location Pleasant and helpful personnel,9,1,10.0,"[' Leisure trip ', ' Family with young children ', ' Classic Double or Twin Room ', ' Stayed 3 nights ', ' Submitted from a mobile device ']",288 day,52.3705447,4.8886439
